sno,district,mandal,village,temp_id,long_gis,lat_gis,gwl,season,pH,E.C,TDS,CO3,HCO3,Cl,F,NO3 ,SO4,Na,K,Ca,Mg,T.H,SAR,Classification,RSC  meq  / L,Classification.1
1,ADILABAD,Adilabad,Adilabad,1001,78.5247,19.6683,16.45,premonsoon 2018,8.21,1407,900.48,0,240,190,0.34,94.3377,129,95,5,48,111.826,579.8108553,1.715349413,C3S1,-6.796217105,P.S.
2,ADILABAD,Bazarhatnur,Bazarhatnur,1002,78.350833,19.458888,38.6,premonsoon 2018,8.29,1620,1036.8,0,360,150,0.34,173.1739,115,105,19,104,87.516,619.8519737,1.833654332,C3S1,-5.197039474,P.S.
3,ADILABAD,Gudihatnoor,Gudihatnoor,1007,78.512222,19.525555,,premonsoon 2018,8.34,959,613.76,50,260,70,0.62,41.23399,56,55,2,56,72.93,439.8766447,1.140169454,C3S1,-2.597532895,P.S.
4,ADILABAD,Jainath,Jainath,1009,78.64,19.730555,6.2,premonsoon 2018,8.22,509,325.76,0,230,30,0.91,19.26615,30,63,2,40,19.448,179.9671053,2.041813862,C2S1,1.000657895,P.S.
5,ADILABAD,Narnoor,Narnoor,1010,78.852654,19.495665,6.15,premonsoon 2018,8.29,550,352,0,220,20,1.23,32.42028,25,49,7,32,24.31,179.9588816,1.588113733,C2S1,0.800822368,P.S.
6,ADILABAD,Neradigonda,Neradigonda,1011,78.41216,19.29375,48.2,premonsoon 2018,8.19,1041,666.24,0,310,140,0.46,42.9613,47,79,20,72,63.206,439.8930921,1.637667326,C3S1,-2.597861842,P.S.
7,ADILABAD,Talamadugu,Talamadugu,1013,78.3969,19.6334,6.65,premonsoon 2018,8.33,1970,1260.8,60,310,250,0.83,131.0984,152,145,165,80,58.344,439.9013158,3.005816996,C3S1,-1.398026316,P.S.
8,ADILABAD,Tamsi,Tamsi,1014,78.4268,19.6811,6.3,premonsoon 2018,8.32,800,512,40,210,40,1.51,42.91701,64,59,25,32,38.896,239.9342105,1.656067705,C3S1,0.201315789,P.S.
9,ADILABAD,Utnoor,Utnoor,1015,78.7685,19.3789,8.2,premonsoon 2018,8.31,459,293.76,40,120,30,1.15,1.3287,27,26,8,32,19.448,159.9671053,0.893779047,C2S1,0.000657895,P.S.
10,BHADRADRI,Annapureddypalli,Annapureddypalli,1021,80.826104,17.354519,16.25,premonsoon 2018,8.33,280,179.2,20,54.83373419,20,0.08,37.6465,5,17.09862461,3.32,24,9.724,99.98355263,0.743479605,C2S1,-0.502996369,P.S.
11,BHADRADRI,Ashwapuram,Aswapuram,1022,80.809241,17.841678,10.26,premonsoon 2018,8.05,1871,1197.44,0,242.1915011,360,0.46,168.302,39,148.3988766,1.9,72,106.964,619.8190789,2.591613939,C3S1,-7.552551557,P.S.
12,BHADRADRI,Bhadrachalam,Bhadrachalam,1024,80.900922,17.666775,13.56,premonsoon 2018,8.34,1167,746.88,40,303.5035203,140,0.77,5.53625,31,79.42941347,13.12,48,68.068,399.8848684,1.726974934,C3S1,-1.127626963,P.S.
13,BHADRADRI,Burgampad,M.Banjara,1025,80.7911,17.6447,14.9,premonsoon 2018,7.99,2030,1299.2,0,422.8365643,280,1.52,172.731,46,254.519029,9.4,16,102.102,459.8273026,5.160538763,C3S2,-0.739814766,P.S.
14,BHADRADRI,Chandrugonda,Ravikampadu,1026,80.6106,17.3986,18.75,premonsoon 2018,8.09,2810,1798.4,0,408.523876,330,0.54,608.9875,25,202.2080174,15.5,40,209.066,959.6463816,2.838016526,C4S1,-11.02245011,P.S.
16,BHADRADRI,Gundala,Kanchanapalli,3016,80.42,17.79,,premonsoon 2018,8.22,895,572.8,0,178.2508078,70,0.51,190.447,12,20.4522113,68.5,48,48.62,319.9177632,0.497156655,C3S1,-2.833339108,P.S.
17,BHADRADRI,Julurpadu,P. Narsapuram,3019,80.520318,17.438169,,premonsoon 2018,8.23,4050,2592,0,405.2168238,780,0.64,575.77,34,466.7575019,24.2,24,228.514,999.6134868,6.418705016,C4S2,-11.88793326,P.S.
18,BHADRADRI,Karakagudem,Karakagudem,1033,80.568147,18.034655,6.62,premonsoon 2018,7.99,854,546.56,0,244.2855757,100,0.27,12.8441,26,66.75395619,4.85,64,29.172,279.9506579,1.734636287,C3S1,-0.713301644,P.S.
19,BHADRADRI,Laxmidevipalli,Laxmidevipalli,1035,80.619,17.573,11.15,premonsoon 2018,8.75,1310,838.4,40,102.8881496,270,0.31,101.867,41,170.3193177,8.9,24,53.482,279.9095395,4.42616116,C3S1,-2.740427797,P.S.
20,BHADRADRI,Manuguru,Pagideru,3022,80.73,17.97,,premonsoon 2018,7.94,1128,721.92,0,318.4679687,160,1.22,2.2145,12,111.2684461,37.4,40,43.758,279.9259868,2.89149588,C3S1,0.770839638,P.S.
21,BHADRADRI,Palwancha,REGELLA,3029,80.58,17.95,,premonsoon 2018,8.25,222,142.08,0,67.28444847,20,0.16,7.5293,8,23.56640108,0.7,8,9.724,59.98355263,1.322967991,C1S1,0.146017917,P.S.
22,BHADRADRI,Tekulapalli,Bethampudi,3034,80.45,17.56,,premonsoon 2018,7.75,2020,1292.8,0,406.428231,280,0.5,188.2325,45,81.9993959,1.6,136,121.55,839.7944079,1.230258368,C3S1,-8.667323538,P.S.
23,BHADRADRI,Tekulapalli,Mutyalampadu,3035,80.5,17.54,,premonsoon 2018,8.25,2680,1715.2,0,874.9464769,240,4.6,95.2235,35,507.602245,7.8,40,34.034,239.9424342,14.2476149,C4S3,12.70008085,U.S.
24,BHADRADRI,Yellandu,Komararam,3036,80.32,17.71,,premonsoon 2018,7.98,584,373.76,0,249.5101628,20,2.2,3.76465,8,8.611526238,12.7,64,24.31,259.9588816,0.232220183,C2S1,-0.208974376,P.S.
25,BHUPALPALLY,Ghanpur Mulug,Chelpur(D),3041,79.853503,18.368545,,premonsoon 2018,8.21,259,165.76,0,80,20,0.34,10.05383,16,16,2,32,4.862,99.99177632,0.69568078,C2S1,-0.399835526,P.S.
26,BHUPALPALLY,Kataram,Shankarampally 125(D),1057,79.8983,18.6022,21.04,premonsoon 2018,8,496,317.44,0,180,50,0.43,19.97479,19,22,4,48,29.172,239.9506579,0.617495607,C2S1,-1.199013158,P.S.
27,BHUPALPALLY,Mahadevpur,Ambatipalli,1060,80.061858,18.695678,22.53,premonsoon 2018,8.01,210,134.4,0,60,30,0.05,23.51799,14,14,4,24,9.724,99.98355263,0.608745716,C1S1,-0.799671053,P.S.
28,BHUPALPALLY,Regonda,Regonda,1077,79.7775,18.24,13.58,premonsoon 2018,7.76,270,172.8,0,30,50,0.06,36.3178,17,15,5,32,9.724,119.9835526,0.59539141,C2S1,-1.799671053,P.S.
29,HYDERABAD,Ameerpet,S.R.Nagar,1087,78.443916,17.442333,19.35,premonsoon 2018,6.84,697,446.08,0,130.8927999,110,1.28,53.81235,15,87.55344443,1.33,16,29.172,159.9506579,3.009902203,C2S1,-0.581157159,P.S.
30,HYDERABAD,Asifnagar,Himayanagar,1088,78.44525,17.397638,4.8,premonsoon 2018,7.47,536,343.04,0,127.0704129,80,0.64,4.429,21,58.20650163,3.26,32,14.586,139.9753289,2.139035111,C2S1,-0.25809832,P.S.
31,HYDERABAD,Asifnagar,Kulsanapur,1089,78.437,17.374,6.11,premonsoon 2018,8.44,1026,656.64,40,168.1200302,150,1.09,79.722,23,116.7364525,19.11,16,48.62,239.9177632,3.276781277,C3S1,-1.431954659,P.S.
32,HYDERABAD,Bandlaguda,Chandraingutta,1090,78.484,17.333,12.7,premonsoon 2018,7.56,1085,694.4,0,236.0059886,180,0.73,25.02385,26,93.96778135,2.91,64,43.758,339.9259868,2.21594488,C3S1,-2.078399964,P.S.
33,HYDERABAD,Charminar,Darul Shifa,1092,78.485,17.381,8.02,premonsoon 2018,8.11,828,529.92,0,273.7235082,80,0.86,3.1003,20,69.57297972,21.07,48,29.172,239.9506579,1.952773152,C4S2,0.675457006,P.S.
34,HYDERABAD,Maredpally,Maredpally(s),1095,78.509,17.441,20.15,premonsoon 2018,7.75,853,545.92,0,260.242161,90,1.91,16.3873,21,76.7451856,3.11,56,29.172,259.9506579,2.069559154,C3S1,0.005830062,P.S.
35,HYDERABAD,Nampally,Nampally,1097,78.474,17.385,2.37,premonsoon 2018,8.65,908,581.12,60,103.3247168,170,0.89,26.574,24,98.25068135,3.93,24,43.758,239.9259868,2.757840149,C3S1,-2.726025401,P.S.
36,HYDERABAD,Saidabad,Juvinile home,1098,78.508,17.361,6.03,premonsoon 2018,8.23,1061,679.04,0,300.2989904,110,1.19,54.25525,25,104.5614861,6.69,64,34.034,299.9424342,2.624973693,C3S1,0.007131124,P.S.
37,JAGITYAL,Dharmapuri,Dharmapuri,1102,79.101944,18.946944,9.66,premonsoon 2018,8.1,1729,978.56,0,450,240,0.55,8.06078,110,174,9,88,77.792,539.8684211,3.255947923,C3S1,-1.797368421,P.S.
38,JAGITYAL,Gollapalli,Gollapalli,1104,79.0522,18.7906,5.87,premonsoon 2018,8.12,994,572.16,0,330,80,1.36,35.78632,84,86,6,32,68.068,359.8848684,1.971009973,C3S1,-0.597697368,P.S.
39,JAGITYAL,Ibrahimpatnam,Ibrahimpatnam,1105,78.579444,18.898611,5.04,premonsoon 2018,8.14,1073,686.72,0,290,150,2.81,129.3268,171,177,7,40,72.93,399.8766447,3.848419536,C3S1,-2.197532895,P.S.
40,JAGITYAL,Jagityal,Jagityal,1106,78.8461,18.8252,12.77,premonsoon 2018,7.96,936,599.04,0,160,120,0.15,178.4887,73,91,1,40,68.068,379.8848684,2.029960367,C3S1,-4.397697368,P.S.
41,JAGITYAL,Kathalapur,Kathalapur,1108,78.689722,18.752777,12.41,premonsoon 2018,7.99,1214,776.96,0,450,140,1.06,33.43895,104,132,6,104,58.344,499.9013158,2.566870479,C3S1,-0.998026316,P.S.
42,JAGITYAL,Kodimal,Chepial,1109,78.935833,18.624722,14.19,premonsoon 2018,8.17,1152,553.6,0,340,90,1.36,8.76942,92,99,6,80,48.62,399.9177632,2.152395182,C3S1,-1.198355263,P.S.
43,JAGITYAL,Korutla,Korutla,1111,78.706388,18.818611,11.32,premonsoon 2018,8.07,1186,759.04,0,360,140,1.82,22.72077,132,37,2,64,116.688,639.8026316,0.635990864,C3S1,-5.596052632,P.S.
44,JAGITYAL,Mallapur,Mallapur,1112,78.7064,18.9647,10.72,premonsoon 2018,8.17,742,474.88,0,280,90,0.86,10.14241,78,168,14,48,5,120,6.667926787,C2S1,3.2,U.S.
45,JAGITYAL,Mallial,Nukapalli,1114,78.9222,18.7094,17.14,premonsoon 2018,8.09,2280,1459.2,0,550,420,2.05,0.4429,135,256,17,112,106.964,719.8190789,4.148589392,C4S1,-3.396381579,P.S.
46,JAGITYAL,Metpalli,Metpalli,1121,78.620555,18.847777,13.75,premonsoon 2018,7.93,1425,912,0,500,150,2.35,1.06296,237,258,47,24,72.93,359.8766447,5.91309748,C3S1,2.802467105,U.S.
47,JAGITYAL,Pegadapalli,Pegadapalli,1122,79.064444,18.706388,5.77,premonsoon 2018,8.22,1236,663.04,0,380,150,4.71,7.26356,120,188,19,24,53.482,279.9095395,4.885636633,C3S1,2.001809211,MR
48,JAGITYAL,Raikal,Raikal,1125,78.802852,18.910338,5.04,premonsoon 2018,8.14,954,610.56,0,310,100,1.37,41.67689,94,83,8,96,38.896,399.9342105,1.804496228,C3S1,-1.798684211,P.S.
49,JAGITYAL,Sarangapur,Sarangapur,1128,78.958055,18.929722,8.11,premonsoon 2018,7.92,1228,785.92,0,340,140,2.04,139.0706,119,155,5,80,58.344,439.9013158,3.213114719,C3S1,-1.998026316,P.S.
50,JAGITYAL,Velgatur,Velgatur,1131,79.1697,18.8353,5.97,premonsoon 2018,7.98,1374,879.36,0,380,150,0.72,12.4012,130,113,4,56,87.516,499.8519737,2.197505151,C3S1,-2.397039474,P.S.
51,JANGAON,Bachannapet,Bachannapet,1132,79.0422,17.7908,13.82,premonsoon 2018,8.27,695,444.8,0,210,50,2.08,31.97738,48,83,8,32,24.31,179.9588816,2.690070201,C2S1,0.600822368,P.S.
52,JANGAON,Devaruppula,Singarajupalli,1135,79.2738,17.5919,10.07,premonsoon 2018,8.25,818,523.52,0,210,90,1.1,33.35037,60,97,6,40,29.172,219.9506579,2.843683549,C3S1,-0.199013158,P.S.
53,JANGAON,Jangaon,Jangaon,1144,79.1474,17.6973,9.25,premonsoon 2018,8.1,1108,709.12,0,230,130,1.16,79.722,84,133,10,48,38.896,279.9342105,3.456175734,C3S1,-0.998684211,P.S.
54,JANGAON,Lingala ghanpur,Lingala ghanpur,1149,79.1997,17.6591,10.4,premonsoon 2018,8.22,1699,1087.36,0,200,280,0.46,141.728,145,189,7,88,58.344,459.9013158,3.831789492,C3S1,-5.198026316,P.S.
55,JANGAON,Palakurthi,Palakurthi,1154,79.4225,17.6691,17.57,premonsoon 2018,8.3,345,220.8,20,110,20,0.87,17.00736,20,44,4,16,14.586,99.97532895,1.913279506,C2S1,0.600493421,P.S.
56,JANGAON,Raghunadhapalli,Raghunadhapalli,1157,79.2636,17.7647,27.5,premonsoon 2018,8.39,1342,858.88,40,260,160,1.75,41.36686,118,153,7,64,48.62,359.9177632,3.50640401,C3S1,-1.198355263,P.S.
57,JANGAON,Zafergad,Zafergad,1159,79.487,17.7651,12.4,premonsoon 2018,8.32,797,510.08,20,150,80,0.38,75.293,62,95,10,40,24.31,199.9588816,2.920958722,C3S1,-0.599177632,P.S.
58,JOGULAMBA(GADWAL),Alampur,Alampur,1160,78.121104,15.896441,3.35,premonsoon 2018,8.05,3530,2259.2,0,574.3576948,770,2.67,4.8719,80,733.4106022,6.5,40,19.448,179.9671053,23.76964974,C4S4,7.88781179,U.S.
59,JOGULAMBA(GADWAL),Dharoor,Dharoor,1161,77.678908,16.224385,7.4,premonsoon 2018,7.92,1598,1022.72,0,202.2243461,300,0.29,161.6585,34,64.24568251,5.87,88,106.964,659.8190789,1.087435925,C3S1,-9.151894656,P.S.
60,JOGULAMBA(GADWAL),Dharoor,Neelahally,1163,77.641794,16.265211,18.78,premonsoon 2018,7.78,1667,1066.88,0,380.1376553,180,1.13,57.577,139,152.6726991,7.9,40,97.24,499.8355263,2.969066925,C3S1,-2.39395742,P.S.
61,JOGULAMBA(GADWAL),Gadwal,Gadwal,1164,77.8021,16.2326,4.36,premonsoon 2018,7.58,3190,2041.6,0,488.1560853,660,0.53,117.3685,63,224.6013286,2.3,200,150.722,1119.745066,2.918266207,C4S1,-12.63177961,P.S.
62,JOGULAMBA(GADWAL),Gattu,Gattu,1165,77.5757,16.1287,9.14,premonsoon 2018,7.75,1166,746.24,0,191.7394847,200,0.45,90.7945,29,67.35466958,1.94,104,43.758,439.9259868,1.396207818,C3S1,-4.963730042,P.S.
63,JOGULAMBA(GADWAL),Ieeza,Ieeza,1168,77.671609,16.01518,19.12,premonsoon 2018,8.47,2230,1427.2,200,559.4544034,190,2.2,50.9335,34,459.8365658,5.1,32,9.724,119.9835526,18.25218275,C3S3,12.78941701,U.S.
64,JOGULAMBA(GADWAL),K-T Doddi,Kondapur,1169,77.8315,16.0701,5.55,premonsoon 2018,7.73,2140,1369.6,0,211.3976855,330,0.23,416.326,45,162.4455488,6,176,68.068,719.8848684,2.632379239,C3S1,-10.16974366,P.S.
65,JOGULAMBA(GADWAL),K-T Doddi,Kuchinerla,1166,77.526,16.179,6.29,premonsoon 2018,7.07,3380,2163.2,0,220.4529027,620,0.28,633.347,65,287.6887349,1.3,264,102.102,1079.827303,3.806430183,C4S1,-17.187488,P.S.
66,JOGULAMBA(GADWAL),Maldakal,Maldakal,1170,77.687599,16.129667,4.05,premonsoon 2018,7.12,1326,848.64,0,287,200,0.46,92.34465,12,48,3.77,160,38.896,559.9342105,0.8819519,C3S1,-5.458684211,P.S.
67,JOGULAMBA(GADWAL),Manopad,Manopad,1171,77.9533,15.9656,12.73,premonsoon 2018,7.98,5550,3552,0,1819.742899,210,0.85,487.19,222,800.9587403,1.4,176,150.722,1059.745066,10.69748306,OG,15.19995667,U.S.
68,JOGULAMBA(GADWAL),Waddepalli,Santhinagar,1172,77.839,15.94,6.1,premonsoon 2018,7.89,4800,3072,0,987.9644368,750,0.62,199.305,163,573.8131811,13.3,48,252.824,1159.572368,7.326452786,C4S2,-3.432158633,P.S.
69,KAMAREDDY,Bansawada,Bansawada,1177,77.879,18.393,5.7,premonsoon 2018,8.27,1820,1164.8,0,488.3916908,120,4.94,88.58,165,347.9107968,2.2,24,24.31,159.9588816,11.96012975,C3S2,6.568656185,U.S.
70,KAMAREDDY,Bhiknoor,Bhiknoor,1179,78.399,18.196,22.7,premonsoon 2018,8.44,1101,704.64,60,278.1347047,110,0.69,47.3903,13,71.19004768,1.05,64,58.344,399.9013158,1.547800673,C3S1,-1.235332222,P.S.
71,KAMAREDDY,Bhiknoor,P.D.Mallareddy,1197,78.453,18.173,33.06,premonsoon 2018,8.08,331,211.84,0,123.7096866,20,0.85,5.7577,7,11.45768932,1.77,40,9.724,139.9835526,0.421047119,C2S1,-0.325477321,P.S.
72,KAMAREDDY,Bibipet,Bibipet,1180,78.523,18.205,28.45,premonsoon 2018,8.2,857,548.48,0,193.0392285,110,0.64,78.8362,12,69.57648506,1.23,72,24.31,279.9588816,1.807954614,C3S1,-1.738393061,P.S.
73,KAMAREDDY,BICHKUNDA,Pulkal,1198,77.767,18.399,8.07,premonsoon 2018,8.25,1113,712.32,0,158.6794908,230,0.79,49.38335,27,81.92932144,3.14,96,34.034,379.9424342,1.827479953,C3S1,-4.425258869,P.S.
74,KAMAREDDY,Domakonda,Domakonda,1183,78.436,18.25,30.47,premonsoon 2018,8.64,765,489.6,100,128.7885082,80,2.52,27.9027,14,84.34606153,2.35,40,24.31,199.9588816,2.59338278,C3S1,0.576592532,P.S.
75,KAMAREDDY,Gandhari,Gandhari,1184,78.107,18.396,30.47,premonsoon 2018,8.05,857,548.48,0,264.7681887,70,1.26,45.6187,23,32.22691076,2.19,72,43.758,359.9259868,0.738557374,C3S1,-1.903155963,P.S.
76,KAMAREDDY,Gandhari,Sarvapoor,1202,77.9851,18.3647,25.6,premonsoon 2018,8.01,791,506.24,0,322.1902441,30,3.23,2.546675,24,99.86611502,1.88,24,29.172,179.9506579,3.236783115,C3S1,2.844791725,U.S.
77,KAMAREDDY,Jukkal,Jukkal,1186,77.604,18.364,7.95,premonsoon 2018,8.26,1463,936.32,0,181.7251358,280,2.59,143.0567,31,147.449453,108.2,24,53.482,279.9095395,3.831832177,C3S1,-1.963688074,P.S.
78,KAMAREDDY,Kamareddy,Adloor,1174,78.3435,18.3438,21.45,premonsoon 2018,7.2,442,282.88,0,158.0296866,20,1.86,35.21055,4,46.18626525,2.2,40,4.862,119.9917763,1.83319755,C2S1,0.760758205,P.S.
79,KAMAREDDY,Kamareddy,Narasannapally,1195,78.3617,18.2686,21,premonsoon 2018,8.15,1350,864,0,336,170,0.68,91.45885,18,108,5,168,4.862,439.9917763,2.23858526,C4S2,-2.079835526,P.S.
80,KAMAREDDY,Lingampet,Bhavanipet,1178,78.058,18.2791,11.15,premonsoon 2018,7.54,985,630.4,0,238.2877246,130,0.97,62.4489,15,98.14407972,3.22,64,29.172,279.9506579,2.55032498,C3S1,-0.833258666,P.S.
81,KAMAREDDY,Machareddy,Machareddy,1189,78.493,18.329,14.24,premonsoon 2018,7.88,424,271.36,0,145.9188969,40,0.89,4.20755,4,15.08301927,1.06,48,14.586,179.9753289,0.488825622,C2S1,-0.68112864,P.S.
82,KAMAREDDY,Maddnur,Menoor,1193,77.652,18.483,18.66,premonsoon 2018,8.19,617,394.88,0,188.5737402,50,0.43,45.84015,9,30.67364334,3.86,64,19.448,239.9671053,0.860917768,C2S1,-1.027867301,P.S.
83,KAMAREDDY,Nagireddipet,Malthummeda,1191,78.142,18.114,16.85,premonsoon 2018,7.79,730,467.2,0,251.1226311,60,0.99,20.15195,9,67.39371556,1.72,32,34.034,219.9424342,1.975773021,C2S1,0.623603938,P.S.
84,KAMAREDDY,Nasurullabad,Nasurullabad,1196,77.873,18.468,2.19,premonsoon 2018,7.89,206,131.84,0,60.48349609,20,0.34,4.849755,9,19.85170054,0.69,16,4.862,59.99177632,1.114356161,C1S1,0.009834396,P.S.
85,KAMAREDDY,Nizamsagar,Mohammadnagar,1192,77.908661,18.293098,7.87,premonsoon 2018,7.8,2490,1593.6,0,236.6469201,470,1.14,318.888,73,291.5778611,2.9,128,72.93,619.8766447,5.09183208,C4S2,-7.664594493,P.S.
86,KAMAREDDY,Rajampet,Argonda,1175,78.272,18.234,16.35,premonsoon 2018,8.31,1461,935.04,20,262.6724293,240,1.55,102.08845,19,153.4718209,3.3,112,29.172,399.9506579,3.336549729,C3S1,-2.345564572,P.S.
87,KAMAREDDY,RAMAREDDY,Reddypet,1200,78.417,18.409,17.25,premonsoon 2018,7.72,842,538.88,0,166.6233635,150,0.74,28.56705,15,65.46845565,2.29,72,24.31,279.9588816,1.7012069,C3S1,-2.266710361,P.S.
88,KAMAREDDY,Sadasivanagar,Sadasivanagar,1201,78.264,18.406,13.04,premonsoon 2018,7.95,812,519.68,0,264.8146173,70,0.99,25.6882,17,76.75239683,2.54,56,24.31,239.9588816,2.154247988,C3S1,0.497114714,P.S.
89,KAMAREDDY,Tadwai,Yerrapahad,1205,78.223,18.293,5.42,premonsoon 2018,7.59,934,597.76,0,243.6569982,70,0.75,131.9842,13,58.88459899,2.92,64,43.758,339.9259868,1.388614521,C3S1,-1.925379772,P.S.
90,KARIMNAGAR,Choppadandi,Rukmapur,1210,79.1461,18.5334,15.92,premonsoon 2018,7.63,512,327.68,0,120,50,0.41,34.50191,40,67,2,24,14.586,119.9753289,2.659506108,C2S1,0.000493421,P.S.
91,KARIMNAGAR,Gangadhara,Gangadhara,1213,79.008888,18.579444,20.37,premonsoon 2018,8.2,601,384.64,0,170,50,1.46,25.20101,51,65,4,32,24.31,179.9588816,2.106681483,C2S1,-0.199177632,P.S.
92,KARIMNAGAR,Huzurabad,Huzurabad,1215,79.407573,18.189488,9.36,premonsoon 2018,7.87,727,465.28,0,180,70,1.21,43.31562,52,78,8,32,29.172,199.9506579,2.398310164,C2S1,-0.399013158,P.S.
93,KARIMNAGAR,Saidapur,Saidapur,1222,79.305174,18.2148,12.42,premonsoon 2018,8.02,670,428.8,0,220,40,3.84,3.72036,58,87,8,24,24.31,159.9588816,2.990799071,C2S1,1.200822368,P.S.
94,KARIMNAGAR,Thimmapur,Alugunur,1223,79.151234,18.400873,9.34,premonsoon 2018,7.75,491,314.24,0,140,40,1.26,20.59485,39,56,2,24,19.448,139.9671053,2.058008673,C2S1,0.000657895,P.S.
95,KHAMMAM,Bonakal,Mustikunta,1226,80.223141,17.040809,2.4,premonsoon 2018,7.69,2428,1553.92,0,208.7112811,450,0.36,354.32,70,173.774013,6.7,144,116.688,839.8026316,2.607164169,C4S1,-12.62182701,P.S.
96,KHAMMAM,Kallur,Kallur,1227,80.5467,17.21,4.73,premonsoon 2018,8.25,1608,1029.12,0,384.5540899,210,0.77,93.8948,38,104.4144739,19.7,88,82.654,559.8601974,1.918638135,C3S1,-3.506122149,P.S.
97,KHAMMAM,Kamepalli,Kothalingala,1228,80.237801,17.429453,13.05,premonsoon 2018,8.68,958,613.12,80,230.1695419,90,0.94,35.719885,8,71.15181718,7.19,48,48.62,319.9177632,1.729573342,C3S1,-0.194964424,P.S.
98,KHAMMAM,Khammam (R ),M.V.Palem,1231,80.0969,17.2967,8.4,premonsoon 2018,8.12,2080,1331.2,0,226.1917331,330,0.36,390.85925,22,156.0470611,8.9,72,126.412,699.7861842,2.564750221,C3S1,-9.471889021,P.S.
99,KHAMMAM,Khammam(U),Khammam I,1229,80.1333,17.2333,1.75,premonsoon 2018,8.68,902,577.28,20,252.5098614,100,1.5,15.0586,20,87.32158723,4.5,32,43.758,259.9259868,2.354880831,C3S1,0.251677491,P.S.
100,KHAMMAM,Khammam(U),Khammam-II,1230,80.1436,17.2525,2.95,premonsoon 2018,8.47,1507,964.48,40,284.9459947,210,0.69,112.27515,33,17.74084458,2.11,64,136.136,719.7697368,0.287507822,C3S1,-7.896474843,P.S.
101,KHAMMAM,Konijerla,Konijerla,1232,80.2908,17.2211,3.03,premonsoon 2018,8.59,1041,666.24,60,210.9847107,140,0.69,36.207075,17,58.6339846,30,24,72.93,359.8766447,1.343831266,C3S1,-1.77783868,P.S.
102,KHAMMAM,Kusumanchi,Kusumanchi,1233,79.9583,17.2208,12.95,premonsoon 2018,8.39,732,468.48,40,146.603909,100,0.89,15.9444,21,21.43646958,2.45,56,43.758,319.9259868,0.521075516,C2S1,-2.666441556,P.S.
103,KHAMMAM,Mudigonda,Mudigonda,1234,80.0986,17.1875,3.8,premonsoon 2018,8.41,1095,700.8,40,196.4079567,100,0.54,187.3467,13,29.72902632,6.63,64,77.792,479.8684211,0.590054007,C3S1,-4.869209288,P.S.
104,KHAMMAM,Sathupalli,Prakashnagar,1235,80.8942,17.1942,38.4,premonsoon 2018,8.99,598,382.72,80,131.5199307,50,0.99,8.304375,7,13.69103854,9.6,56,29.172,259.9506579,0.369201194,C2S1,-0.968614544,P.S.
105,KHAMMAM,Thallada,Anjanapuram,1236,80.4625,17.2147,7.5,premonsoon 2018,8.82,1639,1048.96,80,302.789973,260,1.18,66.435,8,185.372498,3.8,24,87.516,419.8519737,3.933411351,C3S1,-0.741240014,P.S.
106,KHAMMAM,Thirumalayapalem,Bachode,1237,79.9006,17.2997,5.5,premonsoon 2018,8.5,1240,793.6,60,237.605193,170,0.85,66.435,22,99.5734493,7.71,40,72.93,399.8766447,2.164974054,C3S1,-2.045429035,P.S.
107,KHAMMAM,Thirumalayapalem,Tirumalayapalem,1238,80.050896,17.317454,5.85,premonsoon 2018,8.16,1349,863.36,0,216.5764588,150,0.49,283.0131,11,128.6399407,1.31,80,48.62,399.9177632,2.796807966,C3S1,-3.666826087,P.S.
108,KHAMMAM,Vemsur,Vemsur,1239,80.805,17.1442,5.85,premonsoon 2018,8.09,1454,930.56,0,227.6002864,240,0.47,119.583,55,95.13144071,5.9,128,48.62,519.9177632,1.813965029,C3S1,-5.846349534,P.S.
109,KHAMMAM,Yerrupalem,Banigandlapadu,3088,80.48,16.86,16.35,premonsoon 2018,8.81,1375,880,80,269.8766215,170,0.97,88.35855,19,42.86001354,1.1,40,121.55,599.7944079,0.760892427,C3S1,-4.998355727,P.S.
110,KUMURAM BHEEM,Asifabad,Asifabad,1243,79.286065,19.359617,24.25,premonsoon 2018,8.01,1595,1020.8,0,350,110,1.35,6.86495,295,225,9,48,53.482,339.9095395,5.306070372,C3S1,0.201809211,P.S.
111,KUMURAM BHEEM,Kagaznagar,Kagaznagar,1250,79.496997,19.355709,6.55,premonsoon 2018,7.65,815,521.6,0,240,60,1.14,38.26656,58,36,2,88,38.896,379.9342105,0.803009095,C3S1,-2.798684211,P.S.
112,KUMURAM BHEEM,Kerameri,Kerameri,1252,79.05625,19.444,10.9,premonsoon 2018,7.9,883,565.12,0,260,40,0.42,41.54402,42,52,1,56,38.896,299.9342105,1.305456802,C3S1,-0.798684211,P.S.
113,KUMURAM BHEEM,Kowthala,Kowthala,1253,79.7324,19.5219,10.5,premonsoon 2018,8.22,656,419.84,0,210,40,0.56,19.66476,25,45,6,48,24.31,219.9588816,1.319209975,C2S1,-0.199177632,P.S.
114,KUMURAM BHEEM,Rebbena,Rebbena II,1256,79.415972,19.257,8.62,premonsoon 2018,7.72,1483,949.12,0,320,170,1.14,80.6078,107,127,7,104,63.206,519.8930921,2.421691746,C3S1,-3.997861842,P.S.
115,KUMURAM BHEEM,Tiryani,Tiryani,1260,79.27225,19.174472,10.55,premonsoon 2018,8,1072,686.08,0,420,40,0.75,25.15672,60,80,98,80,29.172,319.9506579,1.944556862,C3S1,2.000986842,MR
116,MAHABUBABAD,Dhantalapally,Dhantalapally,1265,79.7347,17.5147,5.7,premonsoon 2018,7.69,1890,1209.6,0,380,250,2.1,67.3208,173,296,7,48,63.206,379.8930921,6.602876538,C3S1,0.002138158,P.S.
117,MAHABUBABAD,Dornakal,Mannegudem,1268,80.043883,17.374115,10,premonsoon 2018,8.19,920,588.8,0,260,60,2.96,14.30567,57,106,7,48,14.586,179.9753289,3.435354357,C3S1,1.600493421,MR
118,MAHABUBABAD,Kesamudram,Kesamudram,1273,79.9069,17.6816,8.8,premonsoon 2018,7.89,1690,1081.6,0,370,120,0.9,214.3636,157,196,11,56,77.792,459.8684211,3.97384974,C3S1,-1.797368421,P.S.
119,MAHABUBABAD,Koravi,Ayyagaripally,1274,79.9886,17.503,6.5,premonsoon 2018,8.15,1920,1228.8,0,330,280,1.23,114.7111,170,182,7,96,102.102,659.8273026,3.080551055,C3S1,-6.596546053,P.S.
120,MAHABUBABAD,Mahabubabad,Mahabubabad,1281,80.0011,17.5983,6.7,premonsoon 2018,7.77,2030,1299.2,0,360,260,1.04,89.4658,223,269,8,80,72.93,499.8766447,5.231099984,C3S1,-2.797532895,P.S.
121,MAHABUBABAD,Marripeda,Marripeda,1283,79.8941,17.3852,9.35,premonsoon 2018,8.29,1930,1235.2,0,270,310,1.01,124.012,159,269,12,56,63.206,399.8930921,5.848607717,C3S1,-2.597861842,P.S.
122,MAHABUBABAD,Nellikudur,Nellikudur,1287,79.7597,17.5897,7.96,premonsoon 2018,8.26,1161,743.04,0,350,80,2.45,75.7359,111,102,14,56,58.344,379.9013158,2.275290937,C3S1,-0.598026316,P.S.
123,MAHABUBABAD,Torrur,Torrur,1291,79.6611,17.5836,12.34,premonsoon 2018,8.27,999,639.36,0,300,110,0.9,16.29872,77,89,10,32,58.344,319.9013158,2.16348634,C3S1,-0.398026316,P.S.
124,MAHABUBNAGAR,Bhoothpur,Elkicherla,1294,78.116,16.623,20.58,premonsoon 2018,8.25,822,526.08,0,257.4059863,70,1.13,46.5045,12.75,97.8476685,1.92,24,34.034,200,3.008639536,C3S1,1.149271042,P.S.
125,MAHABUBNAGAR,CC Kunta,Damagnapur,1295,77.7554,16.4997,5.49,premonsoon 2018,8.79,920,588.8,80,232.7300777,90,0.58,2.43595,13.25,91.96979257,3.7,40,38.896,260,2.480193986,C3S1,1.055917343,P.S.
126,MAHABUBNAGAR,CC Kunta,Kurumurthy,1296,77.816757,16.441442,24.67,premonsoon 2018,8.36,997,638.08,20,107.8017466,200,1.46,86.3655,13.5,81.10773429,21.3,48,43.758,300,2.036232597,C3S1,-3.442484804,P.S.
127,MAHABUBNAGAR,CC Kunta,Thirmalapur,1297,77.824269,16.48271,10.56,premonsoon 2018,8.66,760,486.4,60,155.620159,100,0.71,1.99305,17.25,100.3198557,4.5,24,24.31,160,3.44869576,C3S1,1.113225549,P.S.
128,MAHABUBNAGAR,Devarkadara,Devarakadra,1300,77.832836,16.6058,13.18,premonsoon 2018,8.89,1135,726.4,60,431.4285775,30,2.62,21.92355,10,162.0126091,0.8,40,29.172,220,4.749614344,C3S1,5.429558392,U.S.
129,MAHABUBNAGAR,Hanwada,Hanwada,1304,77.897252,16.808381,22.33,premonsoon 2018,8.2,1690,1081.6,0,233.2189076,290,0.4,208.163,25.5,123.3332461,4.3,72,97.24,580,2.226895901,C3S1,-6.932332374,P.S.
130,MAHABUBNAGAR,Jadcherla,Jadcherla,1305,78.122404,16.774181,22.95,premonsoon 2018,7.53,1734,1109.76,0,301.8711379,330,0.99,77.5075,27.5,188.8569616,4.1,56,77.792,460,3.829026468,C3S1,-3.159945663,P.S.
131,MAHABUBNAGAR,Koilkonda,Dammaipally,1307,77.89946,16.759993,14.08,premonsoon 2018,8.06,1704,1090.56,0,353.2090206,260,0.52,95.2235,45,136.8140065,2.5,128,58.344,560,2.513894113,C3S1,-4.133845903,P.S.
132,MAHABUBNAGAR,Mahabubnagar (R) ,Kodur,1312,77.924,16.68,16.86,premonsoon 2018,8.44,1072,686.08,40,288.9650242,120,1.38,23.4737,13,134.2403156,7.5,40,34.034,240,3.767919348,C3S1,1.780451799,MR
133,MAHABUBNAGAR,Mahabubnagar(U),Yenugonda,1313,78.020981,16.761294,25.31,premonsoon 2018,7.89,2000,1280,0,374.982513,360,1.2,101.867,24.25,180.8794408,28.9,64,102.102,580,3.265968863,C3S1,-4.096895793,P.S.
134,MAHABUBNAGAR,Midjil,Kothapalli,1316,78.2315,16.7506,14.55,premonsoon 2018,8.25,2335,1494.4,0,187.2980254,540,1.01,197.0905,46.25,393.2621118,3.4,40,53.482,320,9.559621025,C4S2,-2.652230281,P.S.
135,MAHABUBNAGAR,Nawabpet,Nawabpet,1323,78.0239,16.888,11.89,premonsoon 2018,8.12,1896,1213.44,0,212.8212751,420,1.6,107.40325,45,163.2546835,2.1,136,63.206,600,2.898016694,C3S1,-7.741436341,P.S.
136,MANCHERIAL,Bellampally,Bellampally I,1329,79.503111,19.072027,17.43,premonsoon 2018,7.45,1168,747.52,0,360,80,0.51,19.26615,148,104,11,80,53.482,419.9095395,2.20662042,C3S1,-1.198190789,P.S.
137,MANCHERIAL,Chennur,Chennur I,1331,79.780222,18.852222,10.57,premonsoon 2018,7.87,794,508.16,0,230,100,1.04,10.80676,39,95,1,40,34.034,239.9424342,2.666503997,C3S1,-0.198848684,P.S.
138,MANCHERIAL,Jaipur,Jaipur,1335,79.579972,18.844277,5.59,premonsoon 2018,8.1,2920,1868.8,0,400,520,1.21,1.99305,398,650,4,24,38.896,219.9342105,19.05632392,C4S4,3.601315789,U.S.
139,MANCHERIAL,Mandamarri,Mandamarri,1342,79.477854,18.978679,7.1,premonsoon 2018,7.7,1546,989.44,0,280,250,0.92,20.28482,182,245,2,112,14.586,339.9753289,5.777162014,C3S1,-1.199506579,P.S.
140,MANCHERIAL,Tandur,Tandur ,1345,79.456254,19.157871,19.62,premonsoon 2018,8.11,804,514.56,0,310,50,0.85,23.38512,6,34,6,32,68.068,359.8848684,0.779236501,C3S1,-0.997697368,P.S.
141,MANCHERIAL,Vemanpally,Neelwai,1346,79.81505,19.04799,1.85,premonsoon 2018,7.97,490,313.6,0,140,60,0.76,1.7716,33,46,3,48,9.724,159.9835526,1.581220104,C2S1,-0.399671053,P.S.
142,MEDAK,Chegunta,Chegunta,1348,78.5186,17.9341,20.64,premonsoon 2018,8.51,687,439.68,120,144.3330636,40,2.43,10.40815,10.5,93.17960271,3.45,16,24.31,139.9588816,3.424465433,C2S1,2.487483641,MR
143,MEDAK,Havelighanpur,Mutayapally,1350,78.2189,18.0845,16.5,premonsoon 2018,8.29,859,549.76,0,179.0115778,150,1.12,21.7021,16.5,106.0898273,2.52,24,34.034,199.9424342,3.262071072,C3S1,-0.418617128,P.S.
144,MEDAK,Kulcharam,Rangampet,1353,78.1176,17.9451,32.4,premonsoon 2018,7.98,722,462.08,0,225.0927939,80,0.97,9.96525,11,74.74917972,1.69,32,29.172,199.9506579,2.298355352,C2S1,0.50284272,P.S.
145,MEDAK,Medak,Medak,1354,78.2708,18.0528,23.2,premonsoon 2018,8.37,789,504.96,60,63.34084774,170,0.84,15.0586,14.75,62.28345193,2.44,32,43.758,259.9259868,1.679654616,C3S1,-2.731702782,P.S.
146,MEDAK,Narasapur,Narasapur,1356,78.2819,17.735,22.83,premonsoon 2018,7.59,1309,837.76,0,236.442846,240,1.01,66.435,18.75,100.0592894,2.84,72,63.206,439.8930921,2.074225682,C3S1,-4.069004923,P.S.
147,MEDAK,Narasapur,Reddypally,1357,78.2633,17.7856,16.65,premonsoon 2018,7.71,1831,1171.84,0,260.7748405,390,0.95,69.5353,38,182.8564509,5.7,64,87.516,519.8519737,3.486924963,C3S1,-5.181542664,P.S.
148,MEDAK,Papannapet,Papannapet,1359,78.085354,18.04217,21.59,premonsoon 2018,8.39,1107,708.48,140,206.0593694,120,1.15,14.39425,20.25,99.50906053,2.21,24,68.068,339.8848684,2.346761068,C3S1,0.12349002,P.S.
149,MEDAK,Regode,T.lingampally,1360,77.827959,17.943349,11.06,premonsoon 2018,9.19,789,504.96,100,41.63836355,150,0.87,27.0169,15,62.41916207,49.11,32,29.172,199.9506579,1.919237318,C3S1,-1.166245887,P.S.
150,MEDAK,Shankarampet ,Gavvalapalli,1361,77.9172,18.0517,12.56,premonsoon 2018,8.38,747,478.08,60,100.7834766,120,1.44,31.8888,13.5,62.48777492,1.14,32,38.896,239.9342105,1.753965864,C2S1,-1.583014679,P.S.
151,MEDAK,Shankarampet R,Shankarampet,1362,78.372,17.971,20.65,premonsoon 2018,7.65,2570,1644.8,0,200.3092438,580,0.57,256.882,45,245.6706943,3.1,128,106.964,759.8190789,3.874988518,C4S1,-11.1901967,P.S.
152,MEDAK,Shivampet,Shivampet,1364,78.37,17.7863,24.12,premonsoon 2018,8.24,1101,704.64,0,228.5079371,200,0.97,20.15195,17.5,96.9526541,4.18,32,63.206,339.8930921,2.286444676,C3S1,-2.2277031,P.S.
153,MEDAK,Shivampet,Gudur,1363,78.3674,17.7817,31.23,premonsoon 2018,8.52,876,560.64,80,135.8208198,130,0.79,20.8163,17,91.34061076,3.04,24,43.758,239.9259868,2.56387844,C3S1,-0.48210334,P.S.
154,MEDAK,Shivampet,Usrikapally,1365,78.3949,17.8211,22.05,premonsoon 2018,8.09,1378,881.92,0,227.1048005,290,1.01,31.003,20.25,143.56446,3.05,48,63.206,379.8930921,3.20249461,C3S1,-3.055765833,P.S.
155,MEDAK,Tekmal,Tekmal,1366,78.0304,17.9754,29.9,premonsoon 2018,8.8,569,364.16,80,146.6529227,30,0.98,5.09335,8.25,58.03669149,0.96,16,29.172,159.9506579,1.995178679,C2S1,1.334045296,MR
156,MEDAK,Toopran,Islampur,1367,78.4746,17.8772,37.39,premonsoon 2018,7.27,388,248.32,0,133.4716132,30,2.2,10.1867,7.75,42.80677113,2.26,32,4.862,99.99177632,1.861240495,C2S1,0.669596737,P.S.
157,MEDAK,Toopran,Toopran,1368,78.4775,17.8413,12,premonsoon 2018,7.45,2580,1651.2,0,141.9084361,510,0.34,453.9725,48,237.2264536,5.7,216,58.344,779.9013158,3.69330738,C4S1,-12.75985759,P.S.
158,MEDAK,Yeldurthy,Edulapally,1369,78.3492,17.9672,25.8,premonsoon 2018,7.42,1303,833.92,0,247.6490304,210,1.36,97.438,21.75,89.79910008,2.26,96,53.482,459.9095395,1.820572337,C3S1,-4.245210182,P.S.
159,MEDAK,Yeldurthy,Kukunoor,1370,78.3208,17.9146,9.1,premonsoon 2018,7.69,382,244.48,0,136.7516132,30,0.77,2.43595,7.75,39.91087167,4.82,24,9.724,99.98355263,1.73539801,C2S1,0.735361211,P.S.
160,MEDAK,Yeldurthy,Ramayapally,1371,78.3213,17.9453,16.3,premonsoon 2018,7.93,509,325.76,0,174.385266,40,0.81,11.0725,11.75,44.23818452,0.71,32,19.448,159.9671053,1.520737015,C2S1,0.288363215,P.S.
161,MEDCHAL,Alwal,Old Alwal,1374,78.508,17.494,9.17,premonsoon 2018,7.61,1420,908.8,0,251.1397168,170,1.97,228.0935,27,79.63575619,3.15,168,29.172,539.9506579,1.490058211,C3S1,-5.776218822,P.S.
162,MEDCHAL,Balanagar,Balanagar 1,1376,78.45,17.47,9.97,premonsoon 2018,7.91,1792,1146.88,0,510.8721852,210,1.38,39.861,46,286.8021979,1.2,56,34.034,279.9424342,7.452813815,C3S2,4.618595019,U.S.
163,MEDCHAL,Kukatpally,Kaithalapur,1389,78.4,17.47,6.58,premonsoon 2018,7.98,2580,1651.2,0,461.9274716,450,1,159.444,50,284.1088065,4.2,176,58.344,679.9013158,4.737333058,C4S2,-4.359476884,P.S.
164,MEDCHAL,Kukatpally,Kukatpally 1,1387,78.397,17.481,29.64,premonsoon 2018,7.59,404,258.56,0,133.1022303,40,0.45,2.6574,8,26.63113692,4.81,32,14.586,139.9753289,0.978669656,C2S1,-0.137461973,P.S.
165,MEDCHAL,Malkajgiri,Malkajgiri,1390,78.535,17.449,18.18,premonsoon 2018,7.36,1223,782.72,0,262.7778874,150,2.24,132.87,23,107.6617429,2.88,40,68.068,380,2.401638144,C3S1,-2.342139621,P.S.
166,MEDCHAL,Qutubullapur,Gajularamaram 2,1396,78.42,17.53,5.13,premonsoon 2018,7.55,1130,723.2,0,250.37107,190,1.2,35.432,12,67.75237655,2.7,80,53.482,419.9095395,1.437536323,C3S1,-3.390769389,P.S.
168,MEDCHAL,Qutubullapur,Qutubullapur 2,1399,78.46,17.5,29.98,premonsoon 2018,8.02,740,473.6,0,220.4246173,70,1.32,44.29,11,49.83267918,4.23,64,24.31,260,1.34379825,C2S1,-0.790685286,P.S.
169,MEDCHAL,Qutubullapur,Shapurnagar,1394,78.44,17.54,,premonsoon 2018,7.4,1285,822.4,0,341.1964648,180,0.94,35.432,12,122.3353471,2.4,64,53.482,379.9095395,2.728877392,C3S1,-0.774261493,P.S.
170,MULUGU,Eturu Nagaram,Eturu Nagaram (D),3040,80.440017,18.359652,,premonsoon 2018,7.99,310,198.4,0,70,40,0.12,32.17030724,21,37,1,32,5,80,1.798576417,C2S1,-0.2,P.S.
171,MULUGU,Eturu Nagaram,Eturu Nagaram (S),1048,80.4232,18.3374,13.51,premonsoon 2018,7.88,315,201.6,0,70,50,0.11,34.91655298,25,36,1,32,4.862,99.99177632,1.565281755,C2S1,-0.599835526,P.S.
172,MULUGU,Govindaraopet,Pasra,1051,80.171524,18.207438,2.34,premonsoon 2018,8.25,1576,1008.64,0,450,220,1.08,5.49249148,75,161,2,56,97.24,539.8355263,3.012779233,C3S1,-1.796710526,P.S.
173,MULUGU,Govindaraopet,Project Nagar,1052,80.1944,18.2616,4.47,premonsoon 2018,7.95,510,326.4,0,140,70,0.2,1.9616041,66,45,11,72,4.862,199.9917763,1.383498233,C2S1,-1.199835526,P.S.
175,NAGARKURNOOL,Balmur,Balmur,1410,78.566382,16.331127,21.05,premonsoon 2018,7.52,1436,919.04,0,302.730465,240,0.75,68.6495,13.75,76.96727175,14.05,112,63.206,539.8930921,1.440205188,C3S1,-4.743252542,P.S.
176,NAGARKURNOOL,Bijinepalli,Bijinepalli,1413,78.196422,16.535278,23.65,premonsoon 2018,7.52,1280,819.2,0,105,300,0.54,110.725,16,57,2.17,104,63.206,519.8930921,1.08690102,C3S1,-8.297861842,P.S.
177,NAGARKURNOOL,Kalwakuthy,Kalwakuthy,1414,78.488,16.667,37.63,premonsoon 2018,7.68,1562,999.68,0,209.2913541,320,1.82,112.9395,20.75,102.1954793,5.3,96,77.792,559.8684211,1.877849845,C3S1,-7.011541338,P.S.
178,NAGARKURNOOL,Kodair,Kodair,1417,78.274343,16.269624,3.78,premonsoon 2018,8.64,1972,1262.08,40,61.44781665,390,0.69,369.8215,25.5,139.9229317,9.23,152,72.93,679.8766447,2.333167932,C3S1,-11.56857656,P.S.
179,NAGARKURNOOL,Kollapur,Kollapur,1419,78.306,16.107,2.59,premonsoon 2018,8.15,3860,2470.4,0,301,1080,0.45,35.21055,56.25,408,1.7,200,136.136,1059.769737,5.449122488,C4S1,-15.17539474,P.S.
180,NAGARKURNOOL,Lingal,Ambatipally,1421,78.446,16.277,8.2,premonsoon 2018,8.63,1758,1125.12,60,327.0453678,250,1.51,128.441,26,204.1350931,3.2,104,43.758,439.9259868,4.231555358,C3S1,-1.05761238,P.S.
181,NAGARKURNOOL,Nagarkurnool,Nagarkurnool,1424,78.302619,16.491743,25.17,premonsoon 2018,8.59,934,597.76,40,201.0642504,120,1.81,49.38335,11.75,41.17661718,1.75,72,48.62,379.9177632,0.918497607,C3S1,-2.777070256,P.S.
182,NAGARKURNOOL,Telkapally,Telkapally,1428,78.440307,16.435091,3.65,premonsoon 2018,9.06,1478,945.92,100,323.44883,200,1.58,8.858,18.25,222.8209209,1.6,56,29.172,259.9506579,6.008729706,C3S1,3.269963441,U.S.
183,NAGARKURNOOL,Thimmajipet,Gummakonda,1429,78.19,16.6224,13.05,premonsoon 2018,8.52,1669,1068.16,80,224.7849074,230,0.83,221.45,17.75,110.6041044,2,88,92.378,599.84375,1.963470309,C3S1,-5.901176851,P.S.
184,NAGARKURNOOL,Uppununuthala,Uppununthala,1431,78.591328,16.450018,10.92,premonsoon 2018,8.55,1481,947.84,60,212.6238202,250,0.42,115.154,14.5,57.5703654,2.3,64,111.826,619.8108553,1.005406204,C3S1,-6.943740701,P.S.
185,NAGARKURNOOL,Veldanda,Veldanda,1433,78.5211,16.73106,29.7,premonsoon 2018,8.65,838,536.32,60,209.8288593,50,0.98,77.5075,11.5,37.26195302,1.78,48,53.482,339.9095395,0.878731311,C3S1,-1.401613604,P.S.
186,NALGONDA,Advidevulapally,Ulsaipalem,1434,79.499703,16.706822,3.87,premonsoon 2018,8.1,985,630.4,0,274.9603436,130,1.25,11.803285,19,71.5747589,1.5,48,53.482,340,1.687914256,C3S1,-1.298983917,P.S.
187,NALGONDA,Anumula,Anumula,1435,79.289548,16.798786,13.61,premonsoon 2018,8.64,1846,1181.44,60,712.3481766,10,5.22,134.6416,18,399.1707594,3.5,16,4.862,60,22.40706756,C3S4,14.24712801,U.S.
188,NALGONDA,Anumula,Chintagudem,1436,79.292086,16.833094,6.36,premonsoon 2018,8.93,1347,862.08,120,164.3364588,150,1.48,182.25335,23,146.7177846,1.1,24,72.93,360,3.362622335,C3S1,-1.510803719,P.S.
189,NALGONDA,Anumula,Rajavaram,1438,79.407512,16.68016,11.46,premonsoon 2018,8.08,1300,832,0,198.5758501,280,0.348,6.59921,43,90.10429954,0.55,104,48.62,460,1.826743569,C3S1,-5.226838262,P.S.
190,NALGONDA,Anumula,Sreerampur,1439,79.304637,16.729108,4.04,premonsoon 2018,8.49,1143,731.52,40,158.4437704,200,0.988,56.73549,38,116.895806,2.49,40,53.482,320,2.841564368,C3S1,-2.429315381,P.S.
191,NALGONDA,Chandampet,Chandampet,1440,78.888363,16.578477,11.67,premonsoon 2018,7.3,1886,1207.04,0,352.6684812,340,1.21,66.435,46,179.673276,1.5,144,48.62,560,3.301364885,C3S1,-4.144985639,P.S.
192,NALGONDA,Chandur,Angadipet,1517,79.018416,16.984083,11.47,premonsoon 2018,8.56,2510,1606.4,60,470.5135626,350,2.56,194.65455,59,506.6683851,4.8,24,24.31,160,17.41773949,C4S4,7.41109362,U.S.
193,NALGONDA,Chandur,Bangarigadda,1446,79.011361,16.984666,10.845,premonsoon 2018,8.1,1320,844.8,0,520.2567601,70,3.02,24.62524,14,259.5334845,1.9,8,19.448,100,11.28592093,C3S2,8.405793097,U.S.
194,NALGONDA,Chandur,Chandur,1447,79.0601,16.9681,8.58,premonsoon 2018,8.01,1010,646.4,0,272.6758078,70,1.55,128.441,24,113.5314172,2.6,24,48.62,260,3.061753639,C3S1,0.255160892,P.S.
195,NALGONDA,Chandur,Sirdepally,1452,79.063083,17.014888,11.16,premonsoon 2018,8.93,2430,1555.2,100,295.6659496,380,1.41,264.18985,56,325.4154996,31.2,24,102.102,480,6.459039204,C4S2,-1.683227061,P.S.
196,NALGONDA,Chityala,Veliminedu,1456,79.020166,17.228916,29.02,premonsoon 2018,8.14,1482,948.48,0,334.4257505,180,0.71,149.2573,24,85.79173274,1.6,88,82.654,560,1.57644131,C3S1,-4.508688936,P.S.
197,NALGONDA,Devarakonda,Padamtipally,1459,78.797379,16.67664,16.85,premonsoon 2018,9.02,610,390.4,120,10.13175409,40,1.08,130.2126,10,29.24922678,3.53,48,29.172,240,0.820966775,C2S1,-2.196378076,P.S.
198,NALGONDA,Devarakonda,Tatikole,1460,78.856645,16.625235,14.01,premonsoon 2018,8.66,908,581.12,80,254.4766788,60,2.48,17.00736,16,181.0418481,3.9,8,9.724,60,10.16330705,C3S2,5.489862522,U.S.
199,NALGONDA,Gundlapally,Vavikole,1461,78.76505,16.675791,6.13,premonsoon 2018,8.18,2320,1484.8,0,879.1694787,170,4.17,15.9444,16,491.3040728,2.8,8,19.448,100,21.36456084,C4S4,15.58404747,U.S.
200,NALGONDA,Gurrampode,Gurrampode,1463,79.091378,16.851709,5.06,premonsoon 2018,7.91,1101,704.64,0,257.0323358,170,0.333,12.04688,37,43.39466262,1.35,128,34.034,460,0.879744865,C3S1,-4.058201968,P.S.
201,NALGONDA,Gurrampode,Koppole,1464,79.146882,16.914619,2.67,premonsoon 2018,8,864,552.96,0,237.9455004,120,0.655,3.49891,17,106.1689744,4.36,24,34.034,200,3.264504701,C3S1,0.760061323,P.S.
202,NALGONDA,K.Mallepally,K.Mallepally,1466,78.981033,16.729392,16.29,premonsoon 2018,8.09,2290,1465.6,0,324.3881678,360,0.532,332.6179,32,185.9014814,25.4,128,97.24,720,3.012578527,C4S1,-7.908947171,P.S.
203,NALGONDA,kanagala,kanagala,1467,79.198425,16.937341,7.85,premonsoon 2018,8.23,1343,859.52,0,307.7957566,210,0.641,39.32952,28,99.01631293,2.4,80,63.206,460,2.007476506,C3S1,-3.04194671,P.S.
204,NALGONDA,Kattangur,Cheruvu Annaram,1468,79.354249,17.198652,36.76,premonsoon 2018,7.87,1941,1242.24,0,236.1181105,470,0.305,31.62306,35,72.05987663,2.92,152,106.964,820,1.094225087,C3S1,-11.67401937,P.S.
205,NALGONDA,Kattangur,Kattangur,1469,79.320303,17.161891,7.01,premonsoon 2018,8.26,2490,1593.6,0,483.55843,480,1.4,36.53925,41,290.9971916,3.9,112,82.654,620,5.081759251,C4S2,-2.726035347,P.S.
206,NALGONDA,Marriguda,Marriguda,1476,78.863805,16.939916,10.82,premonsoon 2018,8.27,1388,888.32,0,181.415612,280,2.94,103.86005,26,91.15594876,2.26,88,68.068,500,1.772646691,C3S1,-6.369385129,P.S.
207,NALGONDA,Munugode,Kistapur,1482,79.017026,17.156249,8.62,premonsoon 2018,8.53,1590,1017.6,100,246.9302171,290,1.77,12.866245,20,283.1717156,5.8,16,34.034,180,9.178151884,C3S1,3.339755659,U.S.
208,NALGONDA,Munugode,Kompalli,1483,78.993715,17.099308,8.29,premonsoon 2018,8.06,603,385.92,0,148.4623991,90,0.529,2.83456,20,73.58824868,3.57,32,14.586,140,2.704300092,C2S1,0.169741403,P.S.
209,NALGONDA,Nakrekal,Arlagaddagudam,1485,79.400636,17.139111,9.47,premonsoon 2018,8.61,1432,916.48,40,191.5670466,310,0.65,26.551855,18,173.3578183,5,40,58.344,340,4.08826627,C3S1,-2.166685384,P.S.
210,NALGONDA,Nakrekal,Nakrekal,1486,79.420978,17.159338,10.43,premonsoon 2018,8.09,1334,853.76,0,99.84673918,360,0.481,31.97738,26,77.53527817,4.09,88,68.068,500,1.50777493,C3S1,-8.000762585,P.S.
211,NALGONDA,Nakrekal,Vallabhapur,1488,79.479895,17.238945,3.94,premonsoon 2018,7.92,2180,1395.2,0,115.4167754,540,0.291,186.23945,50,126.0606622,5.47,192,82.654,820,1.914175911,C3S1,-14.08886844,P.S.
212,NALGONDA,Nalgonda,Mushampally,1489,79.32478,16.97492,10.92,premonsoon 2018,8.28,1215,777.6,0,231.4492527,230,1.04,28.21273,22,150.3058584,5.4,32,48.62,280,3.906005429,C3S1,-0.96937021,P.S.
213,NALGONDA,Nalgonda,S L B C G V guda,1494,79.300907,17.060183,6.93,premonsoon 2018,8.16,1049,671.36,0,280.314554,150,1.76,17.22881,13,106.0243118,30.77,16,53.482,260,2.859344719,C3S1,0.408100291,P.S.
214,NALGONDA,Nalgonda,Seetarampuram,1493,79.216751,17.110312,9.01,premonsoon 2018,8.2,1541,986.24,0,244.316483,270,0.422,135.9703,27,127.2331429,1.35,88,68.068,500,2.474214933,C3S1,-5.111367709,P.S.
215,NALGONDA,Narketpalli,Akkenepally,1496,79.235645,17.290078,3.26,premonsoon 2018,8.75,2400,1536,80,226,590,2.08,5.71341,44,349.8901916,9,40,82.654,440,7.253483037,C4S2,-2.684479348,P.S.
216,NALGONDA,Narketpalli,Narketpalli,1497,79.191305,17.20025,18.25,premonsoon 2018,8.03,811,519.04,0,313.572387,30,3.66,44,9,37.19825085,6.84,48,48.6,320,0.904188045,C3S1,-0.127400944,P.S.
217,NALGONDA,Nidamanuru,Nidamanur,1500,79.285277,16.84,4.35,premonsoon 2018,8.08,2260,1446.4,0,327.9215071,390,1.15,235.40135,49,390.3618738,103.8,16,29.172,160,13.41981543,C4S3,3.359416985,U.S.
218,NALGONDA,P.A Pally,Angadipet,1502,79.084472,16.716555,9.3,premonsoon 2018,7.96,1624,1039.36,0,242.7296596,280,0.451,163.65155,33,106.7615177,6.35,144,53.482,580,1.92755499,C3S1,-6.743597598,P.S.
219,NALGONDA,Peddavoora,Velmaguda,1506,79.18302,16.77852,21.94,premonsoon 2018,8.24,1340,857.6,0,386.5357385,120,2.91,97.21655,28,199.3790685,2.6,40,34.034,240,5.596264033,C3S1,2.931866085,U.S.
220,NALGONDA,Shaligowraram,P.Kondaram,1509,79.423055,17.249444,11.44,premonsoon 2018,8.45,2590,1657.6,100,131.4036983,630,0.989,139.29205,48,322.9982152,4.7,16,136.136,600,5.734294748,C4S2,-7.36732077,P.S.
221,NALGONDA,Thiparthy,Thipparthy,1512,79.418305,17.01375,7.845,premonsoon 2018,8.9,1294,828.16,80,319.880425,140,1.34,35.542725,14,102.2134504,8.92,32,82.654,420,2.168841726,C3S1,-0.399595447,P.S.
222,NALGONDA,Thiparthy,Mamidala,1513,79.465001,17.065212,12.13,premonsoon 2018,8.15,4180,2675.2,0,156.0196177,860,0.705,787.25475,63,388.4678313,224.2,104,175.032,980,5.396097598,C4S2,-16.47368659,P.S.
224,NARAYANPET,Kosigi,Kosigi,1309,77.705505,16.984631,12.85,premonsoon 2018,7.95,1890,1209.6,0,143.4092076,400,0.55,263.5255,15,60.04787074,3.2,152,106.964,820,0.911823468,C3S1,-13.52819743,P.S.
225,NARAYANPET,Maddur,Maddur,1310,77.607,16.857,13.3,premonsoon 2018,7.63,1183,757.12,0,191.1636198,240,0.75,51.3764,14,61.69327229,2.67,72,68.068,460,1.250792908,C3S1,-5.374424973,P.S.
226,NARAYANPET,Makthal,Makthal,1314,77.500096,16.500518,12.26,premonsoon 2018,8.59,1380,883.2,60,179.6310007,240,1.14,39.861,70,207.3181273,4.9,40,34.034,240,5.819101213,C3S2,-0.00622867,P.S.
227,NARAYANPET,Marikal,Marikal,1315,77.698167,16.592044,15.35,premonsoon 2018,8.3,1870,1196.8,20,334.3325069,330,0.99,78.17185,41.25,183.5985039,4.2,72,87.516,540,3.435610767,C3S1,-3.710389335,P.S.
228,NARAYANPET,Narayanpet,Kollampally,1319,77.616892,16.667939,9.3,premonsoon 2018,8.98,1030,659.2,80,325.0988216,60,2.53,15.9444,7,164.5740503,1.9,16,29.172,160,5.657707699,C3S2,4.902963274,U.S.
229,NARAYANPET,Narayanpet,Kotakonda,1320,77.637795,16.754004,8.04,premonsoon 2018,7.77,2480,1587.2,0,154.8326464,530,0.49,329.9605,57,289.9330151,17.4,104,82.654,600,5.146889127,C4S2,-8.900551019,P.S.
230,NARAYANPET,Narayanpet,Narayanapet,1321,77.4812,16.7423,19.91,premonsoon 2018,8.52,850,544,40,148.1101493,150,0.6,16.52017,7.5,67.32643963,2.31,48,38.896,280,1.749563962,C3S1,-1.836481225,P.S.
231,NARAYANPET,Narva,Narva,1322,77.6567,16.4706,16.59,premonsoon 2018,8.51,2280,1459.2,60,542.9088918,310,1.59,59.7915,38.75,260.8133595,3.6,48,111.826,580,4.70932677,C4S2,0.461960731,P.S.
232,NARAYANPET,Utkoor,Utkoor,1327,77.5003,16.6407,7.61,premonsoon 2018,8.19,1824,1167.36,0,395.5094215,280,0.87,87.91565,40,217.4232012,6.7,72,63.206,440,4.507175601,C3S1,-0.887673412,P.S.
233,NARAYANPET,Utkoor,Chinnaporla,1326,77.516956,16.581217,8.08,premonsoon 2018,8.39,2240,1433.6,20,362.0230985,410,1.25,126.2265,45,242.4352237,3.4,64,106.964,600,4.303856131,C3S1,-4.35591961,P.S.
234,NIRMAL,Kadam,Kadam,1523,78.775944,19.096611,6.81,premonsoon 2018,8.32,1705,1091.2,20,230,250,1.7,155.015,147,184,12,56,82.654,479.8601974,3.65201559,C3S1,-4.597203947,P.S.
235,NIRMAL,Khanapur,Khanapur,1524,78.662131,19.047089,9.71,premonsoon 2018,8.4,719,460.16,40,180,70,1.39,7.61788,92,71,9,32,43.758,259.9259868,1.914721712,C2S1,-0.798519737,P.S.
236,NIRMAL,Kubeer,Kubeer,1525,77.945833,19.2495,8.71,premonsoon 2018,8.36,669,428.16,40,180,60,0.81,40.3039,33,54,2,32,43.758,259.9259868,1.456267217,C2S1,-0.798519737,P.S.
237,NIRMAL,Kuntala,Kuntala,1526,78.1004,19.1693,17.67,premonsoon 2018,8.3,1369,876.16,20,270,200,1.33,43.18275,76,94,7,64,77.792,479.8684211,1.86568763,C3S1,-3.797368421,P.S.
238,NIRMAL,Laxmanchanda,Laxmanchanda,1527,78.460861,19.017055,3.62,premonsoon 2018,8.02,552,353.28,0,110,80,0.45,33.17321,92,76,3,24,29.172,179.9506579,2.463253094,C2S1,-1.399013158,P.S.
239,NIRMAL,Lokeswaram,Abdullapur,1528,78.0378,18.9703,17.43,premonsoon 2018,8.16,925,592,0,120,170,0.48,40.34819,96,98,5,48,38.896,279.9342105,2.546655804,C3S1,-3.198684211,P.S.
240,NIRMAL,Lokeswaram,Lokeswaram,1529,78.0899,19.0245,15.11,premonsoon 2018,8.32,411,263.04,20,130,30,0.91,7.13069,14,44,1,16,19.448,119.9671053,1.746601186,C2S1,0.600657895,P.S.
241,NIRMAL,Mamada,Mamada,1531,78.522916,19.077972,5.51,premonsoon 2018,8.1,720,460.8,0,180,90,1.43,6.15631,83,71,12,32,38.896,239.9342105,1.992895034,C2S1,-1.198684211,P.S.
242,NIRMAL,Nirmal,Nirmal,1534,78.343527,19.092416,4.3,premonsoon 2018,8.09,775,496,0,240,110,0.96,0.4429,27,95,4,32,34.034,219.9424342,2.785102965,C3S1,0.401151316,P.S.
243,NIRMAL,Sarangapur,Beeravelly,1536,78.261972,19.139638,19.03,premonsoon 2018,8.21,1240,793.6,0,190,210,1.4,73.5214,88,139,6,56,48.62,339.9177632,3.277932711,C3S1,-2.998355263,P.S.
244,NIRMAL,Tanur,Bhosi,1538,77.879444,19.109333,27.37,premonsoon 2018,8.17,1152,737.28,0,210,150,0.27,183.3606,87,131,3,48,63.206,379.8930921,2.922219008,C3S1,-3.397861842,P.S.
245,NIZAMABAD,Armoor,perkit,1557,78.315,18.808,15.65,premonsoon 2018,7.8,1150,736,0,185.4821731,150,0.93,187.7896,20,80.42190596,4.7,72,53.482,399.9095395,1.748500027,C3S1,-4.288547328,P.S.
246,NIZAMABAD,Bheemgal,Bheemgal,1544,78.442,18.715,16.38,premonsoon 2018,7.92,2310,1478.4,0,409.8818447,490,0.59,24.470225,22,193.0911927,5.5,56,145.86,739.7532895,3.086676935,C4S1,-6.597428895,P.S.
247,NIZAMABAD,Bodhan,Bodhan,1545,77.8925,18.6705,8.22,premonsoon 2018,7.17,1379,882.56,0,215.6645842,300,0.56,31.22445,18,107.4177546,2.27,160,14.586,459.9753289,2.177614323,C3S1,-4.886214894,P.S.
248,NIZAMABAD,Darpally,Ramadugu,1558,78.309,18.613,14.87,premonsoon 2018,7.23,1069,684.16,0,213.003451,190,1.31,37.86795,17,117.6379492,3.24,80,19.448,279.9671053,3.05679353,C3S1,-1.339273086,P.S.
249,NIZAMABAD,Dichpally,Yanampally,1563,78.249,18.627,20.08,premonsoon 2018,7.62,593,379.52,0,209.0381827,40,0.76,21.92355,10,35.1160904,2.47,56,19.448,219.9671053,1.029436239,C2S1,-0.218578452,P.S.
250,NIZAMABAD,Indalwai,Gannaram,1548,78.234885,18.512497,5.07,premonsoon 2018,7.5,1266,810.24,0,237.059322,180,0.6,149.03585,15,117.6397102,2.86,88,38.896,379.9342105,2.624048814,C3S1,-2.857497771,P.S.
251,NIZAMABAD,Jakrampally,Jakrampally,1549,78.2716,18.7072,21.02,premonsoon 2018,7.8,1109,709.76,0,278.6558198,130,0.86,85.9226,17,62.64927972,3.05,120,29.172,419.9506579,1.329196268,C3S1,-2.825896761,P.S.
252,NIZAMABAD,Kammarapalli,Inayathnagar,3117,78.564875,18.708681,13.3,premonsoon 2018,7.45,850,544,0,240.0801809,110,1.92,9.7438,17,85.38399574,2.86,72,14.586,239.9753289,2.396433273,C3S1,0.002097039,P.S.
253,NIZAMABAD,Kotagiri,Kallur,4012,77.77381,18.515955,,premonsoon 2018,7.06,1950,1248,0,324.903231,280,0.44,265.74,30,117.5690557,7.27,160,77.792,719.8684211,1.90519149,C3S1,-7.899303801,P.S.
254,NIZAMABAD,Morthad,Morthad,1553,78.449,18.826,28.23,premonsoon 2018,7.83,586,375.04,0,127.074774,60,0.5,81.71505,12,33.21351981,2.94,56,19.448,219.9671053,0.973661946,C2S1,-1.857846625,P.S.
255,NIZAMABAD,Mugpal,Manchippa,1552,78.114,18.539,7.51,premonsoon 2018,7.96,1105,707.2,0,133.4492466,200,0.49,135.9703,21,96.86293963,5.88,72,38.896,339.9342105,2.28419077,C3S1,-4.129699278,P.S.
256,NIZAMABAD,Mupkal,Mupkal,1554,78.361616,18.912998,17.6,premonsoon 2018,7.25,953,609.92,0,293.16478,90,0.74,43.4042,16,82.63947546,1.32,48,43.758,299.9259868,2.074687392,C3S1,-0.135224136,P.S.
257,NIZAMABAD,Nandipet,Ailapoor,1541,78.114,18.853,8.19,premonsoon 2018,8.37,1176,752.64,20,338.6025558,80,0.93,114.04675,18,115.2478418,2.69,40,58.344,339.9013158,2.717869139,C3S1,-0.0239752,P.S.
258,NIZAMABAD,Nandipet,Nutpally,1555,78.2182,18.9365,9.51,premonsoon 2018,7,926,592.64,0,260.4910519,100,0.64,51.15495,15,47.45771022,3.54,80,38.896,359.9342105,1.087595447,C3S1,-1.988863173,P.S.
259,NIZAMABAD,Nandipet,Velmal,1562,78.143,18.831,13.52,premonsoon 2018,7.75,1180,755.2,0,182.2024293,240,0.42,23.185815,43,107.6383808,1.54,80,38.896,359.9342105,2.46676488,C3S1,-3.554635625,P.S.
260,NIZAMABAD,Nizamabad,Arsapally,1543,78.06863,18.685342,6.01,premonsoon 2018,7.91,1058,677.12,0,281.1556631,140,0.92,39.19665,13,60.18728351,2.78,56,63.206,399.8930921,1.308594092,C3S1,-2.37474858,P.S.
261,NIZAMABAD,Renjal,Dupally,1547,77.991,18.733,15.13,premonsoon 2018,7.45,850,544,0,240.0801809,110,1.92,9.7438,17,85.38399574,2.86,72,14.586,239.9753289,2.396433273,C3S1,0.002097039,P.S.
262,NIZAMABAD,Rudrur,Rayakur,1559,77.8575,18.6102,11.2,premonsoon 2018,7.55,2060,1318.4,0,274.2068387,460,1.27,100.75975,15,109.0393061,2.76,56,160.446,799.7286184,1.676424211,C3S1,-10.51043559,P.S.
263,NIZAMABAD,Sirikonda,Peddavolgote,1556,78.426,18.604,10.5,premonsoon 2018,7.14,2350,1504,0,494.8917392,360,0.89,146.37845,41,275.9113177,5.5,144,53.482,579.9095395,4.981516268,C4S1,-1.700356006,P.S.
264,NIZAMABAD,Vailpoor,Ankushpur,1542,78.396,18.811,6.83,premonsoon 2018,7.75,569,364.16,0,183.8613593,50,1.03,17.05165,13,48.4408904,1.62,40,19.448,179.9671053,1.569956849,C2S1,0.07788508,P.S.
265,NIZAMABAD,Vailpoor,Vailpoor,1560,78.386,18.773,22,premonsoon 2018,7.75,1149,735.36,0,307.6955064,150,0.72,42.0755,15,71.66817601,3.54,88,48.62,419.9177632,1.520604924,C3S1,-2.244445135,P.S.
266,NIZAMABAD,Varni,Varni,1561,77.903,18.543,12.1,premonsoon 2018,7.9,700,448,0,270.8654822,30,1.05,31.003,8,42.04992841,1.69,32,43.758,259.9259868,1.133998745,C2S1,0.218789908,P.S.
267,NIZAMABAD,Yedapalli,Yedapalli,1564,77.954,18.678,16,premonsoon 2018,7.97,773,494.72,0,301.2699307,50,1.64,4.429,7,95.56748398,2.06,48,14.586,179.9753289,3.09724691,C3S1,2.425892035,MR
268,PEDDAPALLY,Dharmaram,Dharmaram,1571,79.1872,18.7453,11.08,premonsoon 2018,8.24,1225,784,0,250,200,1.36,22.80935,130,117,7,40,82.654,439.8601974,2.425496729,C3S1,-3.797203947,P.S.
269,PEDDAPALLY,Eligedu,Eligedu,1573,79.260942,18.552157,7.52,premonsoon 2018,8.16,721,461.44,0,140,100,1.47,15.67866,54,34,1,16,58.344,279.9013158,0.883585562,C2S1,-2.798026316,P.S.
270,PEDDAPALLY,Julapalli,Julapalli,1574,79.2492,18.6205,5.8,premonsoon 2018,8.21,1751,1120.64,0,200,260,3.66,0.4429,235,251,47,40,29.172,219.9506579,7.358397638,C3S1,-0.399013158,P.S.
271,PEDDAPALLY,Odella,Odella,1582,79.46,18.4528,8.35,premonsoon 2018,7.98,1749,1119.36,0,450,140,0.31,103.1957,121,202,8,104,38.896,419.9342105,4.285809915,C3S1,0.601315789,P.S.
272,PEDDAPALLY,Peddapalli,Peddapalli,1584,79.39,18.6017,14.01,premonsoon 2018,7.07,1315,841.6,0,350,110,1.57,107.6247,74,225,6,32,24.31,179.9588816,7.292358979,C3S1,3.400822368,U.S.
273,RANGAREDDY,Chevella,Alur,1590,78.064,17.324,9.55,premonsoon 2018,8.16,426,272.64,0,96.54223632,70,1.33,7.75075,9,51.78711231,2,32,4.862,99.99177632,2.251706167,C2S1,-0.0689908,P.S.
274,RANGAREDDY,Amangal,Amangal,1587,78.5425,16.8442,14.76,premonsoon 2018,7.7,1898,1214.72,0,237.5450093,440,0.54,44.29,44,182.1629755,2,152,43.758,559.9259868,3.34708671,C3S1,-6.447619552,P.S.
275,RANGAREDDY,Chevella,Dharmasagar,1591,78.154,17.336,22,premonsoon 2018,8.2,820,,,,,,,,,,,,,,,,
276,RANGAREDDY,Serilingampally,Gachibowli,1616,78.368,17.43,3.35,premonsoon 2018,8.25,1104,706.56,0,246.6744847,200,1.39,3.9861,14,144.9092097,2,40,34.034,239.9424342,4.067378809,C3S1,0.13464101,P.S.
277,RANGAREDDY,Kandukur,Kandukur,1598,78.48,17.08,13.05,premonsoon 2018,8,847,542.08,0,239.2959705,90,1.17,51.59785,11,66.2085257,3,80,19.448,279.9671053,1.720412454,C3S1,-0.813422695,P.S.
278,RANGAREDDY,Keshampet,Keshampet,1599,78.329383,16.943945,13.93,premonsoon 2018,7.99,2040,1305.6,0,333.0651479,340,0.54,205.9485,30,94.97647175,3,224,63.206,819.8930921,1.442147171,C3S1,-9.736558885,P.S.
279,RANGAREDDY,Kothur,Kothur,1602,78.2879,17.1587,12.97,premonsoon 2018,7.77,2830,1811.2,0,338.4207538,590,0.41,214.8065,55,241.0938878,4,280,48.62,899.9177632,3.494273963,C4S1,-11.22994019,P.S.
280,RANGAREDDY,Madgula,Madgula,1607,78.687875,16.843335,13.05,premonsoon 2018,7.32,1030,659.2,0,153.6254311,170,1.07,117.3685,21,109.3152268,2,64,29.172,279.9506579,2.84061305,C3S1,-2.526504537,P.S.
281,RANGAREDDY,Maheswaram,Maheswaram,1608,78.439,17.135,23.95,premonsoon 2018,7.99,1168,747.52,0,355.010425,140,0.84,9.96525,17,39.58817438,3,144,34.034,499.9424342,0.769799524,C3S1,-2.898640184,P.S.
282,RANGAREDDY,Manchal,Manchal,1611,78.739,17.16,14.77,premonsoon 2018,8.01,2280,1459.2,0,534.4992527,230,1.34,279.027,43,192.2032589,214,96,53.482,459.9095395,3.896697583,C4S1,1.491794264,MR
283,RANGAREDDY,Ibrahimpatnam,Mangalpally,1596,78.598,17.22,11.45,premonsoon 2018,8.29,958,613.12,0,270.6925558,80,1.35,96.9951,12,101.2013915,3,56,29.172,259.9506579,2.72906065,C3S1,0.214837958,P.S.
284,RANGAREDDY,Moinabad,Moinabad,1613,78.29,17.33,16.2,premonsoon 2018,7.98,974,623.36,0,259.9518415,80,0.64,108.5105,21,41.70979365,1,80,48.62,399.9177632,0.906827868,C3S1,-2.799318433,P.S.
285,RANGAREDDY,Shamshabad,Palmokole,1621,78.301,17.204,11.68,premonsoon 2018,7.82,1841,1178.24,0,447.4756059,250,0.82,86.3655,40,166.5689343,6,152,43.758,559.9259868,3.060559726,C3S1,-2.249007619,P.S.
286,RANGAREDDY,Rajender Nagar,Rajender Nagar,1614,78.405,17.316,10.85,premonsoon 2018,7.11,2990,1913.6,0,335.8930022,720,1.39,4.8719,120,104.0198599,3,496,9.724,1279.983553,1.264113979,C4S1,-18.88181101,P.S.
287,RANGAREDDY,Farooqnagar,Shadnagar,1618,78.184623,17.063191,30.5,premonsoon 2018,8.05,1625,1040,0,339.9968778,260,1.12,101.867,15,72.17575464,3,152,68.068,659.8848684,1.221601093,C3S1,-6.397759813,P.S.
288,RANGAREDDY,Shahbad,Shahbad,1619,78.104,17.202,21.3,premonsoon 2018,7.44,658,421.12,0,283.9675437,20,1.01,7.75075,7,32.0882781,2,80,14.586,259.9753289,0.865271718,C2S1,0.479844295,P.S.
289,RANGAREDDY,Shankarpalli,Shankarpalli,1623,78.131,17.453,16.5,premonsoon 2018,8.02,1090,697.6,0,234.3305878,160,0.33,81.9365,13,59.46415944,1,72,58.344,419.9013158,1.261693398,C3S1,-3.71141456,P.S.
290,RANGAREDDY,Talakondapalli,Talakondapalli,1625,78.413,16.89,24.15,premonsoon 2018,7.52,896,573.44,0,272.5553316,70,2.05,79.2791,8,69.57526207,1,72,29.172,299.9506579,1.746634787,C3S1,-0.547906527,P.S.
291,RANGAREDDY,Yacharam,Yacharam,1627,78.67,17.05,20.3,premonsoon 2018,8.03,212,135.68,0,55.75706752,20,0.08,22.145,3,30.2631476,1,8,4.862,39.99177632,2.080659016,C1S1,0.315305824,P.S.
292,SANGAREDDY,Andole,Jogipet,1632,78.072972,17.835805,22.22,premonsoon 2018,7.95,1126,720.64,0,173.9105185,210,0.71,86.3655,17,113.5622536,1.45,32,58.344,319.9013158,2.760566116,C3S1,-2.919815946,P.S.
293,SANGAREDDY,Gummadiddla,Gummadiddla,1634,78.3679,17.6849,22.65,premonsoon 2018,7.76,1207,772.48,0,289.4547168,170,0.7,57.577,21,67.73317817,1.88,72,68.068,459.8848684,1.373248262,C3S1,-3.408603033,P.S.
294,SANGAREDDY,Hathnoora,Borapatla,1635,78.1571,17.6713,24.46,premonsoon 2018,7.91,609,389.76,0,261.7065913,20,1.21,3.9861,8,38.9017952,2.34,72,9.724,219.9835526,1.14037241,C2S1,0.834460774,P.S.
295,SANGAREDDY,Hathnoora,Nasthipur,1636,78.2185,17.7047,29.97,premonsoon 2018,7.55,654,418.56,0,221.7927065,40,1.5,40.96825,12,49.501938,2.11,48,24.31,219.9588816,1.451187786,C2S1,0.036676498,P.S.
296,SANGAREDDY,Jinnaram,Ootla,1638,78.3194,17.6309,16.16,premonsoon 2018,7.67,1174,751.36,0,332.1605878,160,1.2,12.17975,13,88.27147709,0.84,64,58.344,399.9013158,1.91918191,C3S1,-1.35481456,P.S.
297,SANGAREDDY,Kalher,Bachapally,1639,77.868,18.1386,28.81,premonsoon 2018,7.58,1190,761.6,0,294.5881315,180,0.72,32.3317,14,91.87272949,1.03,72,53.482,399.9095395,1.997459127,C3S1,-2.10642816,P.S.
298,SANGAREDDY,Kalher,Meerkhanpally,1641,77.8515,18.1237,19.9,premonsoon 2018,8.09,1012,647.68,0,340.6435896,90,0.83,18.1589,18,105.6119808,1.2,48,38.896,279.9342105,2.744462897,C3S1,1.214187581,P.S.
299,SANGAREDDY,Kandi,Byathole,1642,78.1892,17.6111,27.63,premonsoon 2018,8.13,1438,920.32,0,143.8806933,290,1.54,162.32285,27,111.341953,3.31,104,53.482,479.9095395,2.209791545,C3S1,-6.720576923,P.S.
300,SANGAREDDY,Patancheru ,Isnapur,1653,78.2006,17.5519,10.93,premonsoon 2018,7.67,1796,1149.44,0,293.1819833,390,1.71,3.9861,41,149.1146022,2.3,112,72.93,579.8766447,2.692306686,C3S1,-5.733893228,P.S.
301,SANGAREDDY,Patancheru ,Patancheruvu,1654,78.270166,17.525833,11.64,premonsoon 2018,8.06,807,516.48,0,215.7118476,110,1.25,18.73467,13,57.60014605,1.87,40,43.758,279.9259868,1.496835724,C3S1,-1.284282786,P.S.
302,SANGAREDDY,R.C.Puram,R.C.Puram,1658,78.3003,17.5091,25.33,premonsoon 2018,8.37,977,625.28,40,210.3531255,150,1.28,10.1867,13,69.63232252,1.63,64,43.758,339.9259868,1.642066955,C3S1,-1.791457228,P.S.
303,SIDDIPET,Gajwel,Gajwel,1683,78.6847,17.8447,16.43,premonsoon 2018,8.29,805,515.2,0,139.3135203,140,2.38,59.7915,13,63.90235139,6,40,38.896,259.9342105,1.723285692,C3S1,-2.412413805,P.S.
304,SIDDIPET,Jagdevpur,Munigadapa,1688,78.8242,17.8133,20.52,premonsoon 2018,7.64,1415,905.6,0,143.7456933,290,0.7,163.873,15,50.41965093,4,96,87.516,599.8519737,0.895055473,C3S1,-9.122125607,P.S.
305,SIDDIPET,Mirdoddi,Bhoompalli,1701,78.5972,18.1208,17.2,premonsoon 2018,8.33,1029,658.56,40,204.7240778,150,1.36,46.5045,15,118.2980584,2,24,48.62,259.9177632,3.190302029,C3S1,-0.303873706,P.S.
306,SIDDIPET,Mulugu,Mulugu,1704,78.6333,17.7214,39.22,premonsoon 2018,8.25,590,377.6,0,234.5404822,30,2.67,12.4012,5,32.94230379,5,32,34.034,219.9424342,0.965765347,C2S1,0.29196096,P.S.
307,SIDDIPET,Nanganur,Rampur,1708,78.9925,18.0888,10.2,premonsoon 2018,8.06,630,403.2,0,201.1329446,40,1.12,53.148,11,33.03808669,5,32,38.896,239.9342105,0.92734421,C2S1,-0.776025319,P.S.
308,SIDDIPET,Raipole,Raipole,1709,78.6181,17.9256,24.86,premonsoon 2018,7.87,513,328.32,0,115.8004822,30,1.37,108.5105,8,35.2009952,2,56,9.724,179.9835526,1.140803109,C2S1,-1.283661408,P.S.
309,SIDDIPET,Siddipet,Siddipet,1712,78.8375,18.1033,9.19,premonsoon 2018,8,655,419.2,0,132.4770043,100,3.03,48.719,11,48.6186904,4,56,19.448,219.9671053,1.425268053,C2S1,-1.74980202,P.S.
310,SIDDIPET,Wargal,Majidpalli,1714,78.5866,17.8233,,premonsoon 2018,7.89,727,465.28,0,254.8027065,40,1.64,48.719,9,94.12076099,2,32,19.448,159.9671053,3.235506308,C2S1,1.896712024,MR
311,SIRCILLA,Gambhiraopet,Narmal,1725,78.552568,18.283725,13.21,premonsoon 2018,8.24,1290,825.6,0,230,130,1.02,5.22622,88,89,2,56,48.62,339.9177632,2.098820225,C3S1,-2.198355263,P.S.
312,SIRCILLA,Illanthakunta,Illanthukunta ,1727,78.956388,18.311944,21.3,premonsoon 2018,8.11,835,534.4,0,160,110,1.03,39.63955,90,99,10,72,9.724,219.9835526,2.902099196,C3S1,-1.199671053,P.S.
313,SIRCILLA,Konaraopet,Nizamabad,1735,78.7189,18.4703,16.22,premonsoon 2018,7.24,608,389.12,0,220,30,1.19,43.27133,48,25,2,32,48.62,279.9177632,0.649676179,C2S1,-1.198355263,P.S.
314,SIRCILLA,Sircilla,Sircilla(urban),1741,78.78308,18.35555,15.6,premonsoon 2018,7.19,1650,1056,0,210,340,0.57,34.85623,121,102,10,88,92.378,599.84375,1.810728206,C3S1,-7.796875,P.S.
315,SIRCILLA,Vemulawada,Vemulawada(rural),1747,78.863888,18.486422,26.88,premonsoon 2018,7.26,2230,1427.2,0,350,310,1.48,154.5721,231,186,4,136,87.516,699.8519737,3.056905493,C3S1,-6.997039474,P.S.
316,SIRCILLA,Yellareddipet,Racherla Boppaspur,1748,78.616814,18.377197,23.86,premonsoon 2018,7.09,909,581.76,0,160,120,0.86,38.48801,92,90,5,48,38.896,279.9342105,2.338765535,C3S1,-2.398684211,P.S.
317,SURYAPET,Arvapally,Kodur,1752,79.622842,17.316549,15.81,premonsoon 2018,8.52,805,515.2,60,174.5571549,60,1.25,84.151,11,75.53386262,1.86,40,34.034,239.9424342,2.120119438,C3S1,-0.107705585,P.S.
318,SURYAPET,Arvapally,Nagaram,1753,79.496965,17.386693,12.6,premonsoon 2018,8.24,890,569.6,0,203.1377246,130,0.92,43.8471,18,67.27936262,2.54,64,34.034,299.9424342,1.689021106,C3S1,-1.936094192,P.S.
319,SURYAPET,Chivemla,B. Chandupatla,1760,79.718667,17.141752,9.38,premonsoon 2018,8.8,947,606.08,80,162.0284231,150,1.05,9.52235,7.25,53.15282523,2.19,32,68.068,359.8848684,1.218194752,C3S1,-2.357128907,P.S.
320,SURYAPET,Mattampalle,Raghunadhapalem,1763,79.885324,16.753544,9.39,premonsoon 2018,8.48,1555,995.2,40,259.8409254,260,0.78,53.148,58,154.4765097,70,88,34.034,359.9424342,3.540120847,C3S1,-1.202030176,P.S.
321,SURYAPET,Mellacheruvu,Mellacheruvu,1765,79.904517,16.83738,14.14,premonsoon 2018,8.33,736,471.04,40,131.5154567,100,0.35,33.88185,23.5,50.32154226,1.8,88,9.724,259.9835526,1.356916645,C2S1,-1.76936192,P.S.
322,SURYAPET,Nuthankal,Nuthankal,1772,79.691828,17.333829,13.92,premonsoon 2018,8.69,984,629.76,80,262.081901,80,0.92,22.80935,13.25,52.32061293,2.57,48,63.206,379.8930921,1.167116715,C3S1,-0.756223821,P.S.
323,SURYAPET,Thungathurthi,Thungathurthi,1779,79.59122,17.398742,4.63,premonsoon 2018,9.02,833,533.12,120,193.0674526,60,1.41,7.5293,8.25,82.40843483,1.25,16,48.62,239.9177632,2.31319704,C3S1,1.462993788,MR
324,VIKARABAD,Bantwaram,Bantwaram,1784,77.696,17.445,44.27,premonsoon 2018,7.98,632,404.48,0,189.0285021,50,0.476,49.316915,13,72.48377221,1.26,40,14.586,160,2.491646602,C2S1,0.581063464,P.S.
325,VIKARABAD,Basheerabad,Basheerabad,1785,77.444,17.211,16.07,premonsoon 2018,7.55,1536,983.04,0,315.9811574,230,0.709,119.1401,23,115.8539958,3.08,96,68.068,520,2.209172318,C3S1,-4.07807422,P.S.
326,VIKARABAD,Bomraspet,Bomraspet,1786,77.719418,17.164004,15.38,premonsoon 2018,7.11,825,528,0,354.3178632,30,0.944,5.53625,7,80.8290209,0.75,48,29.172,240,2.268707515,C3S1,2.287344106,MR
327,VIKARABAD,Dharoor,Dharoor,1788,77.774,17.303,11.87,premonsoon 2018,7.59,1143,731.52,0,303.5715402,160,0.964,26.020375,15,52.43908189,2.58,104,48.62,460,1.063131905,C3S1,-3.12692446,P.S.
328,VIKARABAD,Doma,Doma,1789,77.836,17.088,13.39,premonsoon 2018,7.62,906,579.84,0,292.5374805,100,0.767,6.887095,9,71.3608685,1.92,64,34.034,300,1.791485656,C3S1,-0.148099075,P.S.
329,VIKARABAD,Doulathabad,Doulathabad,1790,77.5415,16.9983,13.39,premonsoon 2018,7.11,1263,808.32,0,311.8608319,190,1.12,35.65345,16,89.43692786,2.7,112,38.896,440,1.853937842,C3S1,-2.561467572,P.S.
330,VIKARABAD,Kodangal,Kodangal,1791,77.6011,17.0992,18.29,premonsoon 2018,7.33,1703,1089.92,0,379.6120345,250,0.832,112.9395,19,118.4754081,2.02,120,72.93,600,2.103145894,C3S1,-4.405292205,P.S.
331,VIKARABAD,Kodangal,Rudraram (S),1800,77.511,17.133,13.4,premonsoon 2018,7.34,1663,1064.32,0,292.1037012,250,0.0408,190.447,24,27.24938142,0.58,152,97.24,780,0.424255327,C3S1,-9.754636503,P.S.
332,VIKARABAD,Marpalli,Marpalli,1793,77.771,17.529,24.06,premonsoon 2018,9.31,477,305.28,160,21.78841471,10,0.653,35.675595,11,81.31676525,3.22,16,4.862,60,4.564638591,C2S1,2.435932768,MR
333,VIKARABAD,Nawabpet,Vattinenipally(s),1795,77.983,17.445,12.64,premonsoon 2018,7.98,550,352,0,204.9079446,40,0.48,7.108545,5,26.46248452,0.2,56,19.448,220,0.775753799,C2S1,-0.301183214,P.S.
334,VIKARABAD,Parigi,Parigi,1796,77.88,17.18,23.23,premonsoon 2018,7.15,1056,675.84,0,348.2866848,90,0.265,44.7329,11,32.9836065,1.31,88,58.344,460,0.668710248,C3S1,-2.23229262,P.S.
335,VIKARABAD,Peddamul,Peddamul,3137,77.66,17.33,19.29,premonsoon 2018,7.31,1594,1020.16,0,345.5157687,270,0.603,54.631715,18,92.14672632,3.74,112,77.792,600,1.635776914,C3S1,-5.087053048,P.S.
336,VIKARABAD,Pudur,Pudur,1799,77.957,17.264,13.95,premonsoon 2018,7.8,284,181.76,0,64.06452985,30,0.522,34.67907,6,19.78076579,0.34,24,9.724,100,0.86010403,C2S1,-0.718380456,P.S.
337,VIKARABAD,Tandur,Tandur,1802,77.591,17.251,6.92,premonsoon 2018,7.62,1084,693.76,0,294.1744726,140,1.45,40.3039,12,94.61951772,1.42,48,53.482,340,2.231368087,C3S1,-0.914701337,P.S.
338,VIKARABAD,Vikarabad ,Vikarabad(S),1803,77.914,17.321,20.03,premonsoon 2018,7.15,615,393.6,0,254.7361151,20,0.325,21.48065,4,23.15190325,0.23,56,29.172,260,0.624328848,C2S1,-0.104290855,P.S.
339,VIKARABAD,Yalal,Yalal,1804,77.64,17.2,18.94,premonsoon 2018,7.02,351,224.64,0,121.6981766,10,1.47,43.18275,3,16.83310108,0.53,40,9.724,140,0.618582728,C2S1,-0.36570752,P.S.
340,WANAPARTHY,Atmakuru,Atmakuru,1808,77.806,16.337,8.9,premonsoon 2018,7.74,1074,687.36,0,428.2776311,60,1.7,7.75075,12,100.4574407,3.18,48,48.62,320,2.441940605,C3S1,2.16719736,MR
341,WANAPARTHY,Ghanpur,Ghanapur,1809,78.046454,16.56306,7.32,premonsoon 2018,7.72,1587,1015.68,0,479.8658319,190,0.9,26.197535,16,173.4903632,3.4,104,38.896,420,3.680924349,C3S1,1.198632428,P.S.
342,WANAPARTHY,Gopalpet,Gopalpet,1811,78.1348,16.3786,6,premonsoon 2018,7.84,2900,1856,0,574.9933426,440,1.05,255.1104,33,234.7326451,167.7,64,140.998,740,3.752319327,C4S1,-3.295363411,P.S.
343,WANAPARTHY,Kothakota,Kanaipally,1813,77.960249,16.388259,16.23,premonsoon 2018,7.46,1361,871.04,0,261.8168778,260,0.546,21.2592,27,112.1397214,2.8,120,34.034,440,2.324522264,C3S1,-3.562511129,P.S.
344,WANAPARTHY,Pangal,Pangal,1815,78.104481,16.24721,12.2,premonsoon 2018,7.9,1059,677.76,0,422.6681073,60,1.45,4.20755,13,98.27462415,0.98,32,58.344,320,2.388941651,C3S1,2.055335831,MR
345,WANAPARTHY,Pebbair,Ayyavaripalli,1816,78.0236,16.1156,4.45,premonsoon 2018,7.16,3040,1945.6,0,145.690591,570,0.11,566.0262,95,151.4403456,4.8,328,92.378,1200,1.900865591,C4S1,-21.08306318,P.S.
346,WANAPARTHY,Peddamandadi,Peddamandadi,1817,78.0251,16.4306,11.6,premonsoon 2018,7.76,1083,693.12,0,492,20,0.83,9.52235,8,177.4666198,0.9,32,19.448,160,6.100613317,C3S1,6.638104007,U.S.
347,WARANGAL (R) ,Atmakur,Atmakur,1819,79.738,18.0686,6.28,premonsoon 2018,8.2,3980,2547.2,0,490,610,0.69,304.2723,416,552,10,136,116.688,819.8026316,8.382172376,C4S2,-6.596052632,P.S.
348,WARANGAL (R) ,Chennaraopet,Chennaraopet,1820,79.8722,17.883,6.28,premonsoon 2018,8.26,3140,2009.6,0,240,620,1,186.4609,294,270,146,40,175.032,819.7039474,4.100222409,C4S1,-11.59407895,P.S.
349,WARANGAL (R) ,Duggondi,Duggondi,1822,79.8077,18.0194,8.76,premonsoon 2018,8.27,640,409.6,0,170,80,1.1,14.30567,31,61,2,32,29.172,199.9506579,1.875601538,C2S1,-0.599013158,P.S.
350,WARANGAL (R) ,Khanapur,Khanapur,1825,79.93,17.8988,4.8,premonsoon 2018,8.23,1282,820.48,0,280,160,1.38,86.8084,77,108,8,40,77.792,419.8684211,2.291602638,C3S1,-2.797368421,P.S.
351,WARANGAL (R) ,Narasampet,Narasampet,1827,79.8875,17.9227,6.59,premonsoon 2018,8.3,442,282.88,20,160,30,1.04,4.38471,14,36,21,16,24.31,139.9588816,1.323044443,C2S1,0.800822368,P.S.
352,WARANGAL (R) ,Nekkonda,Ameenpet,1828,79.8003,17.8081,6.4,premonsoon 2018,8.22,1447,926.08,0,320,190,2.89,97.438,48,149,22,64,53.482,379.9095395,3.323673336,C3S1,-1.198190789,P.S.
353,WARANGAL (R) ,Parkal,Parkal,1832,79.6374,18.2016,7.09,premonsoon 2018,8.29,838,536.32,0,220,90,1.87,44.24571,41,67,5,32,48.62,279.9177632,1.741132159,C3S1,-1.198355263,P.S.
354,WARANGAL (R) ,Parvathagiri,Parvathagiri,1834,79.723991,17.744466,14.75,premonsoon 2018,8.21,1044,668.16,0,240,130,0.99,18.64609,78,97,1,32,58.344,319.9013158,2.357957022,C3S1,-1.598026316,P.S.
355,WARANGAL (R) ,Rayaparthy,Rayaparthy,1836,79.5473,17.6942,11.8,premonsoon 2018,8.24,1135,726.4,0,210,160,1.01,42.82843,111,110,8,64,43.758,339.9259868,2.59401609,C3S1,-2.598519737,P.S.
356,WARANGAL (R) ,Sangem,Sangem,1837,79.7113,17.8844,5.1,premonsoon 2018,8.05,792,506.88,0,140,120,0.55,29.05424,91,67,36,24,43.758,239.9259868,1.880651487,C3S1,-1.998519737,P.S.
357,WARANGAL (R) ,Wardhannapet,Wardhannapet,1839,79.5794,17.773,10.65,premonsoon 2018,8.28,1198,766.72,0,230,200,0.78,43.4042,84,145,7,40,53.482,319.9095395,3.524735811,C3S1,-1.798190789,P.S.
358,WARANGAL (U),Bheemadevarapallly,Vangara,1843,79.345,18.133888,13.85,premonsoon 2018,7.99,536,343.04,0,80,70,1.62,43.22704,69,29,4,48,24.31,219.9588816,0.850157539,C2S1,-2.799177632,P.S.
359,WARANGAL (U),Dharmasagar,Narayanagiri,1845,79.3769,17.9905,10.94,premonsoon 2018,7.76,2150,1376,0,90,390,2.52,4.60616,388,203,10,96,82.654,579.8601974,3.665274896,C3S1,-9.797203947,P.S.
360,WARANGAL (U),Hanamkonda,Hanumkonda,1848,79.5577,18.0008,11.57,premonsoon 2018,7.59,420,268.8,0,120,50,0.42,1.46157,19,49,6,40,5,100,2.130434783,C2S1,0.4,P.S.
361,WARANGAL (U),Hanamkonda,Mamnoor,1849,79.5969,17.9069,10.8,premonsoon 2018,8.32,769,492.16,20,120,130,0.85,18.91183,38,61,2,24,43.758,239.9259868,1.712234936,C3S1,-1.998519737,P.S.
362,WARANGAL (U),Hasanparthi,Seethampet,1850,79.5153,18.0776,8.21,premonsoon 2018,7.48,1030,659.2,0,330,100,2.44,5.93486,28,89,4,40,63.206,359.8930921,2.03974283,C3S1,-0.597861842,P.S.
363,WARANGAL (U),Kamalapur,Shanigaram,1853,79.597194,18.184083,8.05,premonsoon 2018,7.68,1320,844.8,0,160,250,1.07,34.01472,107,159,5,80,38.896,359.9342105,3.643826793,C3S1,-3.998684211,P.S.
364,WARANGAL (U),warangal,Charbowli,1855,79.607,17.9819,8.44,premonsoon 2018,8.29,430,275.2,0,120,50,0.42,1.50586,19,36,5,32,14.586,139.9753289,1.322966711,C2S1,-0.399506579,P.S.
365,YADADRI,Alair,Kolanpaka,1856,79.019595,17.69706,22.02,premonsoon 2018,8.61,1611,1031.04,160,254.6017964,250,1.98,15.656515,17,223.6651471,5.8,40,53.482,320,5.436969336,C3S1,1.893845138,MR
366,YADADRI,B.Pochampalli,B.Pochampalli,1860,78.810768,17.336196,9.7,premonsoon 2018,8.03,2210,1414.4,0,369.3616006,460,1.46,30.91442,49,251.7998344,6.9,64,97.24,560,4.626977384,C3S1,-3.809478514,P.S.
367,YADADRI,Bibinagar,Bibinagar,1864,78.801601,17.460344,16.1,premonsoon 2018,7.61,2190,1401.6,0,84.44571751,410,1.36,463.2734,46,138.1802953,4.43,216,63.206,800,2.124233763,C3S1,-14.30894749,P.S.
368,YADADRI,Choutuppal,D.Malkapur,1866,78.803218,17.258259,4.59,premonsoon 2018,8.21,1628,1041.92,0,312.0866336,230,2.77,171.4023,30,167.0924012,30.5,64,63.206,420,3.54535313,C3S1,-2.156129169,P.S.
369,YADADRI,Mothukur,Kanchanapalli,1868,79.339638,17.40375,7.68,premonsoon 2018,8.38,357,228.48,40,114.2277004,10,0.908,0.066435,8,45.28194172,1.45,24,4.862,80,2.201276184,C2S1,1.484718482,MR
370,YADADRI,Rajapet,Bondugala,1872,78.9665,17.768305,11.58,premonsoon 2018,8.1,1175,752,0,242.2428994,210,2.11,25.2453,22,105.1705824,3.78,56,53.482,360,2.410292582,C3S1,-2.353332801,P.S.
371,YADADRI,Rajapet,Kurraram,1873,78.929866,17.77549,,premonsoon 2018,8.04,825,528,0,180.3539904,110,0.482,69.75675,16,42.27776316,3.74,64,38.896,320,1.027670345,C3S1,-2.791604402,P.S.
372,YADADRI,Rajapet,Rajapet,1875,78.932968,17.729431,11.02,premonsoon 2018,7.84,1974,1263.36,0,144.6678092,550,0.809,40.901815,23,125.132075,3.91,136,92.378,720,2.027783996,C3S1,-11.50351882,P.S.
373,YADADRI,Rajapet,Somaram,1876,78.991785,17.725671,19.79,premonsoon 2018,8.77,474,303.36,100,75.03635324,20,2.09,27.304785,9,44.10180217,2.76,24,19.448,140,1.62074806,C2S1,0.701384959,P.S.
374,YADADRI,Ramannapet,Ramanapet,1877,79.095091,17.283121,7.92,premonsoon 2018,8.16,2440,1561.6,0,315.8294698,520,2.26,134.86305,48,253.1179211,1.7,48,136.136,680,4.220988275,C4S2,-7.27880534,P.S.
375,YADADRI,S.Narayanpur,S.Narayanpur,1880,78.86001,17.144719,25.41,premonsoon 2018,8.02,2050,1312,0,147.7040327,320,0.739,474.3459,32,171.3965402,2.2,104,97.24,660,2.901057707,C3S1,-10.24262987,P.S.
376,YADADRI,Thurkapally,Gandamalla,1881,78.853831,17.733101,8.3,premonsoon 2018,8.08,1461,935.04,0,290.2021912,240,0.865,91.45885,20,170.067206,6.4,56,53.482,360,3.897589187,C3S1,-1.394146965,P.S.
377,YADADRI,Valigonda,T. somaram,1883,78.95229,17.399953,20.81,premonsoon 2018,8.62,902,577.28,60,122.8344726,140,0.866,58.9057,18,87.58419365,4.06,24,48.62,260,2.362000143,C3S1,-1.54166581,P.S.
378,YADADRI,Valigonda,Vemulakonda,1885,79.143433,17.347782,4.21,premonsoon 2018,7.66,4710,3014.4,0,252.0038434,1350,0.564,32.11025,144,528.7809296,7.2,312,106.964,1220,6.58264201,C4S2,-19.35630471,P.S.
379,YADADRI,Y.Gutta,Mallapuram,1886,78.911638,17.633555,26.36,premonsoon 2018,7.99,1272,814.08,0,230.6003678,250,2.63,31.866655,20,136.6566236,4.2,48,53.482,340,3.222709607,C3S1,-2.186183433,P.S.